{
	"type" : "FeatureCollection",
	"name" : "ZPK_O_Kont_TOstan_b",
	"features" : [
		{
			"type" : "Feature",
			"geometry" : {
				"type" : "Point",
				"coordinates" : [ 14.423073879000071, 50.08058223900008 ]
			},
			"properties" : {
				"OBJECTID" : 1,
				"ID" : 3620,
				"STATIONNUMBER" : "0001/-095",
				"STATIONNAME" : "Jungmannova 737/16",
				"CITYDISTRICTRUIANCODE" : 500054,
				"CITYDISTRICT" : "Praha 1",
				"PRISTUP" : "obyvatelům domu"
			}
		},
		{
			"type" : "Feature",
			"geometry" : {
				"type" : "Point",
				"coordinates" : [ 14.423609791000047, 50.08323372900003 ]
			},
			"properties" : {
				"OBJECTID" : 2,
				"ID" : 3622,
				"STATIONNUMBER" : "0001/-097",
				"STATIONNAME" : "Jungmannovo náměstí 757/14",
				"CITYDISTRICTRUIANCODE" : 500054,
				"CITYDISTRICT" : "Praha 1",
				"PRISTUP" : "obyvatelům domu"
			}
		},
		{
			"type" : "Feature",
			"geometry" : {
				"type" : "Point",
				"coordinates" : [ 14.416868821000037, 50.08829183000006 ]
			},
			"properties" : {
				"OBJECTID" : 3,
				"ID" : 3624,
				"STATIONNUMBER" : "0001/-099",
				"STATIONNAME" : "Kaprova 52/6",
				"CITYDISTRICTRUIANCODE" : 500054,
				"CITYDISTRICT" : "Praha 1",
				"PRISTUP" : "obyvatelům domu"
			}
		},
		{
			"type" : "Feature",
			"geometry" : {
				"type" : "Point",
				"coordinates" : [ 14.417067167000027, 50.08819422400006 ]
			},
			"properties" : {
				"OBJECTID" : 4,
				"ID" : 3625,
				"STATIONNUMBER" : "0001/-100",
				"STATIONNAME" : "Kaprova 49/8",
				"CITYDISTRICTRUIANCODE" : 500054,
				"CITYDISTRICT" : "Praha 1",
				"PRISTUP" : "obyvatelům domu"
			}
		},
		{
			"type" : "Feature",
			"geometry" : {
				"type" : "Point",
				"coordinates" : [ 14.30344846500003, 50.07663524900005 ]
			},
			"properties" : {
				"OBJECTID" : 5,
				"ID" : 3626,
				"STATIONNUMBER" : "0001/-101",
				"STATIONNAME" : "Karlova 146/23",
				"CITYDISTRICTRUIANCODE" : 500054,
				"CITYDISTRICT" : "Praha 1",
				"PRISTUP" : "obyvatelům domu"
			}
		},
		{
			"type" : "Feature",
			"geometry" : {
				"type" : "Point",
				"coordinates" : [ 14.421530107000024, 50.07783949700007 ]
			},
			"properties" : {
				"OBJECTID" : 6,
				"ID" : 3627,
				"STATIONNUMBER" : "0001/-102",
				"STATIONNAME" : "Karlovo náměstí 670/25",
				"CITYDISTRICTRUIANCODE" : 500054,
				"CITYDISTRICT" : "Praha 1",
				"PRISTUP" : "obyvatelům domu"
			}
		},
		{
			"type" : "Feature",
			"geometry" : {
				"type" : "Point",
				"coordinates" : [ 14.404518032000055, 50.085687359000076 ]
			},
			"properties" : {
				"OBJECTID" : 7,
				"ID" : 3628,
				"STATIONNUMBER" : "0001/-103",
				"STATIONNAME" : "Karmelitská 384/10",
				"CITYDISTRICTRUIANCODE" : 500054,
				"CITYDISTRICT" : "Praha 1",
				"PRISTUP" : "obyvatelům domu"
			}
		},
		{
			"type" : "Feature",
			"geometry" : {
				"type" : "Point",
				"coordinates" : [ 14.402975224000045, 50.086033101000055 ]
			},
			"properties" : {
				"OBJECTID" : 8,
				"ID" : 3629,
				"STATIONNUMBER" : "0001/-104",
				"STATIONNAME" : "Karmelitská 545/11",
				"CITYDISTRICTRUIANCODE" : 500054,
				"CITYDISTRICT" : "Praha 1",
				"PRISTUP" : "obyvatelům domu"
			}
		},
		{
			"type" : "Feature",
			"geometry" : {
				"type" : "Point",
				"coordinates" : [ 14.403226741000026, 50.08615225400007 ]
			},
			"properties" : {
				"OBJECTID" : 9,
				"ID" : 3631,
				"STATIONNUMBER" : "0001/-106",
				"STATIONNAME" : "Karmelitská 546/13",
				"CITYDISTRICTRUIANCODE" : 500054,
				"CITYDISTRICT" : "Praha 1",
				"PRISTUP" : "obyvatelům domu"
			}
		},
		{
			"type" : "Feature",
			"geometry" : {
				"type" : "Point",
				"coordinates" : [ 14.403961027000037, 50.08599002300008 ]
			},
			"properties" : {
				"OBJECTID" : 10,
				"ID" : 3632,
				"STATIONNUMBER" : "0001/-107",
				"STATIONNAME" : "Karmelitská 381/15",
				"CITYDISTRICTRUIANCODE" : 500054,
				"CITYDISTRICT" : "Praha 1",
				"PRISTUP" : "obyvatelům domu"
			}
		},
		{
			"type" : "Feature",
			"geometry" : {
				"type" : "Point",
				"coordinates" : [ 14.40361512100003, 50.08681577200008 ]
			},
			"properties" : {
				"OBJECTID" : 11,
				"ID" : 3633,
				"STATIONNUMBER" : "0001/-108",
				"STATIONNAME" : "Karmelitská 374/23",
				"CITYDISTRICTRUIANCODE" : 500054,
				"CITYDISTRICT" : "Praha 1",
				"PRISTUP" : "obyvatelům domu"
			}
		},
		{
			"type" : "Feature",
			"geometry" : {
				"type" : "Point",
				"coordinates" : [ 14.403530080000053, 50.08720939700004 ]
			},
			"properties" : {
				"OBJECTID" : 12,
				"ID" : 3634,
				"STATIONNUMBER" : "0001/-109",
				"STATIONNAME" : "Karmelitská 301/29",
				"CITYDISTRICTRUIANCODE" : 500054,
				"CITYDISTRICT" : "Praha 1",
				"PRISTUP" : "obyvatelům domu"
			}
		},
		{
			"type" : "Feature",
			"geometry" : {
				"type" : "Point",
				"coordinates" : [ 14.403921549000074, 50.08748917400004 ]
			},
			"properties" : {
				"OBJECTID" : 13,
				"ID" : 3635,
				"STATIONNUMBER" : "0001/-110",
				"STATIONNAME" : "Karmelitská 270/30",
				"CITYDISTRICTRUIANCODE" : 500054,
				"CITYDISTRICT" : "Praha 1",
				"PRISTUP" : "obyvatelům domu"
			}
		},
		{
			"type" : "Feature",
			"geometry" : {
				"type" : "Point",
				"coordinates" : [ 14.415799550000031, 50.081982064000044 ]
			},
			"properties" : {
				"OBJECTID" : 14,
				"ID" : 3636,
				"STATIONNUMBER" : "0001/-111",
				"STATIONNAME" : "Karoliny Světlé 1019/5",
				"CITYDISTRICTRUIANCODE" : 500054,
				"CITYDISTRICT" : "Praha 1",
				"PRISTUP" : "obyvatelům domu"
			}
		},
		{
			"type" : "Feature",
			"geometry" : {
				"type" : "Point",
				"coordinates" : [ 14.41557694100004, 50.08194664000007 ]
			},
			"properties" : {
				"OBJECTID" : 15,
				"ID" : 3637,
				"STATIONNUMBER" : "0001/-112",
				"STATIONNAME" : "Karoliny Světlé 1018/7",
				"CITYDISTRICTRUIANCODE" : 500054,
				"CITYDISTRICT" : "Praha 1",
				"PRISTUP" : "obyvatelům domu"
			}
		},
		{
			"type" : "Feature",
			"geometry" : {
				"type" : "Point",
				"coordinates" : [ 14.415096281000046, 50.08202494600005 ]
			},
			"properties" : {
				"OBJECTID" : 16,
				"ID" : 3638,
				"STATIONNUMBER" : "0001/-113",
				"STATIONNAME" : "Karoliny Světlé 1015/11",
				"CITYDISTRICTRUIANCODE" : 500054,
				"CITYDISTRICT" : "Praha 1",
				"PRISTUP" : "obyvatelům domu"
			}
		},
		{
			"type" : "Feature",
			"geometry" : {
				"type" : "Point",
				"coordinates" : [ 14.414554919000068, 50.08249630800003 ]
			},
			"properties" : {
				"OBJECTID" : 17,
				"ID" : 3640,
				"STATIONNUMBER" : "0001/-115",
				"STATIONNAME" : "Karoliny Světlé 317/15",
				"CITYDISTRICTRUIANCODE" : 500054,
				"CITYDISTRICT" : "Praha 1",
				"PRISTUP" : "obyvatelům domu"
			}
		},
		{
			"type" : "Feature",
			"geometry" : {
				"type" : "Point",
				"coordinates" : [ 14.414493873000026, 50.082586469000034 ]
			},
			"properties" : {
				"OBJECTID" : 18,
				"ID" : 3641,
				"STATIONNUMBER" : "0001/-116",
				"STATIONNAME" : "Karoliny Světlé 1035/17",
				"CITYDISTRICTRUIANCODE" : 500054,
				"CITYDISTRICT" : "Praha 1",
				"PRISTUP" : "obyvatelům domu"
			}
		},
		{
			"type" : "Feature",
			"geometry" : {
				"type" : "Point",
				"coordinates" : [ 14.41394596300006, 50.084169243000076 ]
			},
			"properties" : {
				"OBJECTID" : 19,
				"ID" : 3645,
				"STATIONNUMBER" : "0001/-121",
				"STATIONNAME" : "Karoliny Světlé 328/35",
				"CITYDISTRICTRUIANCODE" : 500054,
				"CITYDISTRICT" : "Praha 1",
				"PRISTUP" : "obyvatelům domu"
			}
		},
		{
			"type" : "Feature",
			"geometry" : {
				"type" : "Point",
				"coordinates" : [ 14.388410657000065, 50.08857587800003 ]
			},
			"properties" : {
				"OBJECTID" : 20,
				"ID" : 3646,
				"STATIONNUMBER" : "0001/-122",
				"STATIONNAME" : "Keplerova 216/12",
				"CITYDISTRICTRUIANCODE" : 500054,
				"CITYDISTRICT" : "Praha 1",
				"PRISTUP" : "obyvatelům domu"
			}
		},
		{
			"type" : "Feature",
			"geometry" : {
				"type" : "Point",
				"coordinates" : [ 14.428206039000031, 50.09167729200004 ]
			},
			"properties" : {
				"OBJECTID" : 21,
				"ID" : 3647,
				"STATIONNUMBER" : "0001/-123",
				"STATIONNAME" : "Klimentská 1552/3",
				"CITYDISTRICTRUIANCODE" : 500054,
				"CITYDISTRICT" : "Praha 1",
				"PRISTUP" : "obyvatelům domu"
			}
		},
		{
			"type" : "Feature",
			"geometry" : {
				"type" : "Point",
				"coordinates" : [ 14.42949161200005, 50.091876058000025 ]
			},
			"properties" : {
				"OBJECTID" : 22,
				"ID" : 3649,
				"STATIONNUMBER" : "0001/-125",
				"STATIONNAME" : "Klimentská 1209/14",
				"CITYDISTRICTRUIANCODE" : 500054,
				"CITYDISTRICT" : "Praha 1",
				"PRISTUP" : "obyvatelům domu"
			}
		},
		{
			"type" : "Feature",
			"geometry" : {
				"type" : "Point",
				"coordinates" : [ 14.429620261000025, 50.09188798300005 ]
			},
			"properties" : {
				"OBJECTID" : 23,
				"ID" : 3650,
				"STATIONNUMBER" : "0001/-126",
				"STATIONNAME" : "Klimentská 1210/16",
				"CITYDISTRICTRUIANCODE" : 500054,
				"CITYDISTRICT" : "Praha 1",
				"PRISTUP" : "obyvatelům domu"
			}
		},
		{
			"type" : "Feature",
			"geometry" : {
				"type" : "Point",
				"coordinates" : [ 14.43164613700003, 50.09236956900003 ]
			},
			"properties" : {
				"OBJECTID" : 24,
				"ID" : 3651,
				"STATIONNUMBER" : "0001/-127",
				"STATIONNAME" : "Klimentská 2066/19",
				"CITYDISTRICTRUIANCODE" : 500054,
				"CITYDISTRICT" : "Praha 1",
				"PRISTUP" : "obyvatelům domu"
			}
		},
		{
			"type" : "Feature",
			"geometry" : {
				"type" : "Point",
				"coordinates" : [ 14.432044143000041, 50.09233769700006 ]
			},
			"properties" : {
				"OBJECTID" : 25,
				"ID" : 3652,
				"STATIONNUMBER" : "0001/-128",
				"STATIONNAME" : "Klimentská 2061/21",
				"CITYDISTRICTRUIANCODE" : 500054,
				"CITYDISTRICT" : "Praha 1",
				"PRISTUP" : "obyvatelům domu"
			}
		},
		{
			"type" : "Feature",
			"geometry" : {
				"type" : "Point",
				"coordinates" : [ 14.431508290000068, 50.092029654000044 ]
			},
			"properties" : {
				"OBJECTID" : 26,
				"ID" : 3653,
				"STATIONNUMBER" : "0001/-129",
				"STATIONNAME" : "Klimentská 2067/34",
				"CITYDISTRICTRUIANCODE" : 500054,
				"CITYDISTRICT" : "Praha 1",
				"PRISTUP" : "obyvatelům domu"
			}
		},
		{
			"type" : "Feature",
			"geometry" : {
				"type" : "Point",
				"coordinates" : [ 14.411860317000048, 50.09043335200005 ]
			},
			"properties" : {
				"OBJECTID" : 27,
				"ID" : 3654,
				"STATIONNUMBER" : "0001/-130",
				"STATIONNAME" : "Kosárkovo nábřeží 554/2",
				"CITYDISTRICTRUIANCODE" : 500054,
				"CITYDISTRICT" : "Praha 1",
				"PRISTUP" : "obyvatelům domu"
			}
		},
		{
			"type" : "Feature",
			"geometry" : {
				"type" : "Point",
				"coordinates" : [ 14.422370915000045, 50.09011891200004 ]
			},
			"properties" : {
				"OBJECTID" : 28,
				"ID" : 3655,
				"STATIONNUMBER" : "0001/-131",
				"STATIONNAME" : "Kozí 916/5",
				"CITYDISTRICTRUIANCODE" : 500054,
				"CITYDISTRICT" : "Praha 1",
				"PRISTUP" : "obyvatelům domu"
			}
		},
		{
			"type" : "Feature",
			"geometry" : {
				"type" : "Point",
				"coordinates" : [ 14.422439869000073, 50.09047325700004 ]
			},
			"properties" : {
				"OBJECTID" : 29,
				"ID" : 3656,
				"STATIONNUMBER" : "0001/-132",
				"STATIONNAME" : "Kozí 914/9",
				"CITYDISTRICTRUIANCODE" : 500054,
				"CITYDISTRICT" : "Praha 1",
				"PRISTUP" : "obyvatelům domu"
			}
		},
		{
			"type" : "Feature",
			"geometry" : {
				"type" : "Point",
				"coordinates" : [ 14.422278573000028, 50.09157503700004 ]
			},
			"properties" : {
				"OBJECTID" : 30,
				"ID" : 3657,
				"STATIONNUMBER" : "0001/-133",
				"STATIONNAME" : "Kozí 803/12",
				"CITYDISTRICTRUIANCODE" : 500054,
				"CITYDISTRICT" : "Praha 1",
				"PRISTUP" : "obyvatelům domu"
			}
		},
		{
			"type" : "Feature",
			"geometry" : {
				"type" : "Point",
				"coordinates" : [ 14.421943246000069, 50.09114628700007 ]
			},
			"properties" : {
				"OBJECTID" : 31,
				"ID" : 3658,
				"STATIONNUMBER" : "0001/-134",
				"STATIONNAME" : "Bílkova 857/20",
				"CITYDISTRICTRUIANCODE" : 500054,
				"CITYDISTRICT" : "Praha 1",
				"PRISTUP" : "obyvatelům domu"
			}
		},
		{
			"type" : "Feature",
			"geometry" : {
				"type" : "Point",
				"coordinates" : [ 14.42069329800006, 50.08573912400004 ]
			},
			"properties" : {
				"OBJECTID" : 32,
				"ID" : 3659,
				"STATIONNUMBER" : "0001/-135",
				"STATIONNAME" : "Kožná 473/2",
				"CITYDISTRICTRUIANCODE" : 500054,
				"CITYDISTRICT" : "Praha 1",
				"PRISTUP" : "obyvatelům domu"
			}
		},
		{
			"type" : "Feature",
			"geometry" : {
				"type" : "Point",
				"coordinates" : [ 14.420710788000065, 50.086004993000074 ]
			},
			"properties" : {
				"OBJECTID" : 33,
				"ID" : 3661,
				"STATIONNUMBER" : "0001/-137",
				"STATIONNAME" : "Kožná 972/10",
				"CITYDISTRICTRUIANCODE" : 500054,
				"CITYDISTRICT" : "Praha 1",
				"PRISTUP" : "obyvatelům domu"
			}
		},
		{
			"type" : "Feature",
			"geometry" : {
				"type" : "Point",
				"coordinates" : [ 14.420692604000067, 50.085674244000074 ]
			},
			"properties" : {
				"OBJECTID" : 34,
				"ID" : 3662,
				"STATIONNUMBER" : "0001/-138",
				"STATIONNAME" : "Kožná 99999/8",
				"CITYDISTRICTRUIANCODE" : 500054,
				"CITYDISTRICT" : "Praha 1",
				"PRISTUP" : "obyvatelům domu"
			}
		},
		{
			"type" : "Feature",
			"geometry" : {
				"type" : "Point",
				"coordinates" : [ 14.427519269000072, 50.07733632900005 ]
			},
			"properties" : {
				"OBJECTID" : 35,
				"ID" : 3663,
				"STATIONNUMBER" : "0001/-139",
				"STATIONNAME" : "Krakovská 584/1",
				"CITYDISTRICTRUIANCODE" : 500054,
				"CITYDISTRICT" : "Praha 1",
				"PRISTUP" : "obyvatelům domu"
			}
		},
		{
			"type" : "Feature",
			"geometry" : {
				"type" : "Point",
				"coordinates" : [ 14.428344189000029, 50.07842582100005 ]
			},
			"properties" : {
				"OBJECTID" : 36,
				"ID" : 3664,
				"STATIONNUMBER" : "0001/-141",
				"STATIONNAME" : "Krakovská 1363/12",
				"CITYDISTRICTRUIANCODE" : 500054,
				"CITYDISTRICT" : "Praha 1",
				"PRISTUP" : "obyvatelům domu"
			}
		},
		{
			"type" : "Feature",
			"geometry" : {
				"type" : "Point",
				"coordinates" : [ 14.42802204800006, 50.07865624600004 ]
			},
			"properties" : {
				"OBJECTID" : 37,
				"ID" : 3665,
				"STATIONNUMBER" : "0001/-142",
				"STATIONNAME" : "Krakovská 1346/15",
				"CITYDISTRICTRUIANCODE" : 500054,
				"CITYDISTRICT" : "Praha 1",
				"PRISTUP" : "obyvatelům domu"
			}
		},
		{
			"type" : "Feature",
			"geometry" : {
				"type" : "Point",
				"coordinates" : [ 14.428572048000035, 50.07919364700007 ]
			},
			"properties" : {
				"OBJECTID" : 38,
				"ID" : 3666,
				"STATIONNUMBER" : "0001/-143",
				"STATIONNAME" : "Krakovská 1352/20",
				"CITYDISTRICTRUIANCODE" : 500054,
				"CITYDISTRICT" : "Praha 1",
				"PRISTUP" : "obyvatelům domu"
			}
		},
		{
			"type" : "Feature",
			"geometry" : {
				"type" : "Point",
				"coordinates" : [ 14.42829514300007, 50.07942290300008 ]
			},
			"properties" : {
				"OBJECTID" : 39,
				"ID" : 3667,
				"STATIONNUMBER" : "0001/-144",
				"STATIONNAME" : "Krakovská 582/23",
				"CITYDISTRICTRUIANCODE" : 500054,
				"CITYDISTRICT" : "Praha 1",
				"PRISTUP" : "obyvatelům domu"
			}
		},
		{
			"type" : "Feature",
			"geometry" : {
				"type" : "Point",
				"coordinates" : [ 14.427392138000073, 50.088344902000074 ]
			},
			"properties" : {
				"OBJECTID" : 40,
				"ID" : 3668,
				"STATIONNUMBER" : "0001/-145",
				"STATIONNAME" : "Králodvorská 1084/10",
				"CITYDISTRICTRUIANCODE" : 500054,
				"CITYDISTRICT" : "Praha 1",
				"PRISTUP" : "obyvatelům domu"
			}
		},
		{
			"type" : "Feature",
			"geometry" : {
				"type" : "Point",
				"coordinates" : [ 14.427505964000034, 50.088433389000045 ]
			},
			"properties" : {
				"OBJECTID" : 41,
				"ID" : 3669,
				"STATIONNUMBER" : "0001/-146",
				"STATIONNAME" : "Králodvorská 1085/12",
				"CITYDISTRICTRUIANCODE" : 500054,
				"CITYDISTRICT" : "Praha 1",
				"PRISTUP" : "obyvatelům domu"
			}
		},
		{
			"type" : "Feature",
			"geometry" : {
				"type" : "Point",
				"coordinates" : [ 14.427678951000075, 50.08859091200003 ]
			},
			"properties" : {
				"OBJECTID" : 42,
				"ID" : 3670,
				"STATIONNUMBER" : "0001/-147",
				"STATIONNAME" : "Králodvorská 1086/14",
				"CITYDISTRICTRUIANCODE" : 500054,
				"CITYDISTRICT" : "Praha 1",
				"PRISTUP" : "obyvatelům domu"
			}
		},
		{
			"type" : "Feature",
			"geometry" : {
				"type" : "Point",
				"coordinates" : [ 14.414192663000051, 50.08204898200006 ]
			},
			"properties" : {
				"OBJECTID" : 43,
				"ID" : 3671,
				"STATIONNUMBER" : "0001/-148",
				"STATIONNAME" : "Krocínova 1009/2",
				"CITYDISTRICTRUIANCODE" : 500054,
				"CITYDISTRICT" : "Praha 1",
				"PRISTUP" : "obyvatelům domu"
			}
		},
		{
			"type" : "Feature",
			"geometry" : {
				"type" : "Point",
				"coordinates" : [ 14.415850352000064, 50.08784721600006 ]
			},
			"properties" : {
				"OBJECTID" : 44,
				"ID" : 3677,
				"STATIONNUMBER" : "0001/-154",
				"STATIONNAME" : "Křižovnická 97/8",
				"CITYDISTRICTRUIANCODE" : 500054,
				"CITYDISTRICT" : "Praha 1",
				"PRISTUP" : "obyvatelům domu"
			}
		},
		{
			"type" : "Feature",
			"geometry" : {
				"type" : "Point",
				"coordinates" : [ 14.405432383000061, 50.086715998000045 ]
			},
			"properties" : {
				"OBJECTID" : 45,
				"ID" : 3678,
				"STATIONNUMBER" : "0001/-155",
				"STATIONNAME" : "Lázeňská 289/9",
				"CITYDISTRICTRUIANCODE" : 500054,
				"CITYDISTRICT" : "Praha 1",
				"PRISTUP" : "obyvatelům domu"
			}
		},
		{
			"type" : "Feature",
			"geometry" : {
				"type" : "Point",
				"coordinates" : [ 14.409016043000065, 50.08998300700006 ]
			},
			"properties" : {
				"OBJECTID" : 46,
				"ID" : 3679,
				"STATIONNUMBER" : "0001/-156",
				"STATIONNAME" : "Letenská 120/5",
				"CITYDISTRICTRUIANCODE" : 500054,
				"CITYDISTRICT" : "Praha 1",
				"PRISTUP" : "obyvatelům domu"
			}
		},
		{
			"type" : "Feature",
			"geometry" : {
				"type" : "Point",
				"coordinates" : [ 14.406976726000039, 50.088883628000076 ]
			},
			"properties" : {
				"OBJECTID" : 47,
				"ID" : 3680,
				"STATIONNUMBER" : "0001/-157",
				"STATIONNAME" : "Letenská 606/19",
				"CITYDISTRICTRUIANCODE" : 500054,
				"CITYDISTRICT" : "Praha 1",
				"PRISTUP" : "obyvatelům domu"
			}
		},
		{
			"type" : "Feature",
			"geometry" : {
				"type" : "Point",
				"coordinates" : [ 14.41644283900007, 50.085404244000074 ]
			},
			"properties" : {
				"OBJECTID" : 48,
				"ID" : 3683,
				"STATIONNUMBER" : "0001/-160",
				"STATIONNAME" : "Liliová 946/14",
				"CITYDISTRICTRUIANCODE" : 500054,
				"CITYDISTRICT" : "Praha 1",
				"PRISTUP" : "obyvatelům domu"
			}
		},
		{
			"type" : "Feature",
			"geometry" : {
				"type" : "Point",
				"coordinates" : [ 14.418246684000053, 50.08982971100005 ]
			},
			"properties" : {
				"OBJECTID" : 49,
				"ID" : 3691,
				"STATIONNUMBER" : "0001/-169",
				"STATIONNAME" : "Maiselova 39/17",
				"CITYDISTRICTRUIANCODE" : 500054,
				"CITYDISTRICT" : "Praha 1",
				"PRISTUP" : "obyvatelům domu"
			}
		},
		{
			"type" : "Feature",
			"geometry" : {
				"type" : "Point",
				"coordinates" : [ 14.418041379000044, 50.09031125000007 ]
			},
			"properties" : {
				"OBJECTID" : 50,
				"ID" : 3692,
				"STATIONNUMBER" : "0001/-170",
				"STATIONNAME" : "Maiselova 41/21",
				"CITYDISTRICTRUIANCODE" : 500054,
				"CITYDISTRICT" : "Praha 1",
				"PRISTUP" : "obyvatelům domu"
			}
		},
		{
			"type" : "Feature",
			"geometry" : {
				"type" : "Point",
				"coordinates" : [ 14.407849054000053, 50.081382133000034 ]
			},
			"properties" : {
				"OBJECTID" : 51,
				"ID" : 3693,
				"STATIONNUMBER" : "0001/-171",
				"STATIONNAME" : "Malostranské nábřeží 563/3",
				"CITYDISTRICTRUIANCODE" : 500054,
				"CITYDISTRICT" : "Praha 1",
				"PRISTUP" : "obyvatelům domu"
			}
		},
		{
			"type" : "Feature",
			"geometry" : {
				"type" : "Point",
				"coordinates" : [ 14.405576971000073, 50.08574006300006 ]
			},
			"properties" : {
				"OBJECTID" : 52,
				"ID" : 3703,
				"STATIONNUMBER" : "0001/-181",
				"STATIONNAME" : "Maltézské náměstí 473/15",
				"CITYDISTRICTRUIANCODE" : 500054,
				"CITYDISTRICT" : "Praha 1",
				"PRISTUP" : "obyvatelům domu"
			}
		},
		{
			"type" : "Feature",
			"geometry" : {
				"type" : "Point",
				"coordinates" : [ 14.414362609000023, 50.07780288500004 ]
			},
			"properties" : {
				"OBJECTID" : 53,
				"ID" : 3704,
				"STATIONNUMBER" : "0001/-182",
				"STATIONNAME" : "Masarykovo nábřeží 247/14",
				"CITYDISTRICTRUIANCODE" : 500054,
				"CITYDISTRICT" : "Praha 1",
				"PRISTUP" : "obyvatelům domu"
			}
		},
		{
			"type" : "Feature",
			"geometry" : {
				"type" : "Point",
				"coordinates" : [ 14.433391204000031, 50.091188309000074 ]
			},
			"properties" : {
				"OBJECTID" : 54,
				"ID" : 3816,
				"STATIONNUMBER" : "0001/-295",
				"STATIONNAME" : "Petrská 1135/10",
				"CITYDISTRICTRUIANCODE" : 500054,
				"CITYDISTRICT" : "Praha 1",
				"PRISTUP" : "obyvatelům domu"
			}
		},
		{
			"type" : "Feature",
			"geometry" : {
				"type" : "Point",
				"coordinates" : [ 14.434487319000027, 50.09179319200007 ]
			},
			"properties" : {
				"OBJECTID" : 55,
				"ID" : 3817,
				"STATIONNUMBER" : "0001/-296",
				"STATIONNAME" : "Petrská 1171/21",
				"CITYDISTRICTRUIANCODE" : 500054,
				"CITYDISTRICT" : "Praha 1",
				"PRISTUP" : "obyvatelům domu"
			}
		},
		{
			"type" : "Feature",
			"geometry" : {
				"type" : "Point",
				"coordinates" : [ 14.431947687000047, 50.091760484000076 ]
			},
			"properties" : {
				"OBJECTID" : 56,
				"ID" : 3820,
				"STATIONNUMBER" : "0001/-299",
				"STATIONNAME" : "Petrské náměstí 1185/2",
				"CITYDISTRICTRUIANCODE" : 500054,
				"CITYDISTRICT" : "Praha 1",
				"PRISTUP" : "obyvatelům domu"
			}
		},
		{
			"type" : "Feature",
			"geometry" : {
				"type" : "Point",
				"coordinates" : [ 14.390498623000042, 50.08778642300007 ]
			},
			"properties" : {
				"OBJECTID" : 57,
				"ID" : 3827,
				"STATIONNUMBER" : "0001/-306",
				"STATIONNAME" : "Pohořelec 110/26",
				"CITYDISTRICTRUIANCODE" : 500054,
				"CITYDISTRICT" : "Praha 1",
				"PRISTUP" : "obyvatelům domu"
			}
		},
		{
			"type" : "Feature",
			"geometry" : {
				"type" : "Point",
				"coordinates" : [ 14.404624105000039, 50.08673698600006 ]
			},
			"properties" : {
				"OBJECTID" : 58,
				"ID" : 3828,
				"STATIONNUMBER" : "0001/-307",
				"STATIONNAME" : "Prokopská 295/6",
				"CITYDISTRICTRUIANCODE" : 500054,
				"CITYDISTRICT" : "Praha 1",
				"PRISTUP" : "obyvatelům domu"
			}
		},
		{
			"type" : "Feature",
			"geometry" : {
				"type" : "Point",
				"coordinates" : [ 14.422825763000048, 50.07798272300005 ]
			},
			"properties" : {
				"OBJECTID" : 59,
				"ID" : 3832,
				"STATIONNUMBER" : "0001/-311",
				"STATIONNAME" : "Příčná 659/6",
				"CITYDISTRICTRUIANCODE" : 500054,
				"CITYDISTRICT" : "Praha 1",
				"PRISTUP" : "obyvatelům domu"
			}
		},
		{
			"type" : "Feature",
			"geometry" : {
				"type" : "Point",
				"coordinates" : [ 14.416324364000047, 50.07791741600005 ]
			},
			"properties" : {
				"OBJECTID" : 60,
				"ID" : 3836,
				"STATIONNUMBER" : "0001/-315",
				"STATIONNAME" : "Pštrossova 1926/4",
				"CITYDISTRICTRUIANCODE" : 500054,
				"CITYDISTRICT" : "Praha 1",
				"PRISTUP" : "obyvatelům domu"
			}
		},
		{
			"type" : "Feature",
			"geometry" : {
				"type" : "Point",
				"coordinates" : [ 14.416151069000023, 50.07807478700005 ]
			},
			"properties" : {
				"OBJECTID" : 61,
				"ID" : 3837,
				"STATIONNUMBER" : "0001/-316",
				"STATIONNAME" : "Pštrossova 1762/5",
				"CITYDISTRICTRUIANCODE" : 500054,
				"CITYDISTRICT" : "Praha 1",
				"PRISTUP" : "obyvatelům domu"
			}
		},
		{
			"type" : "Feature",
			"geometry" : {
				"type" : "Point",
				"coordinates" : [ 14.415627511000025, 50.07935947800007 ]
			},
			"properties" : {
				"OBJECTID" : 62,
				"ID" : 3845,
				"STATIONNUMBER" : "0001/-324",
				"STATIONNAME" : "Pštrossova 218/27",
				"CITYDISTRICTRUIANCODE" : 500054,
				"CITYDISTRICT" : "Praha 1",
				"PRISTUP" : "obyvatelům domu"
			}
		},
		{
			"type" : "Feature",
			"geometry" : {
				"type" : "Point",
				"coordinates" : [ 14.406517620000045, 50.082107517000054 ]
			},
			"properties" : {
				"OBJECTID" : 63,
				"ID" : 4049,
				"STATIONNUMBER" : "0001/-530",
				"STATIONNAME" : "Všehrdova 440/7",
				"CITYDISTRICTRUIANCODE" : 500054,
				"CITYDISTRICT" : "Praha 1",
				"PRISTUP" : "obyvatelům domu"
			}
		},
		{
			"type" : "Feature",
			"geometry" : {
				"type" : "Point",
				"coordinates" : [ 14.406183620000036, 50.082491256000026 ]
			},
			"properties" : {
				"OBJECTID" : 64,
				"ID" : 4050,
				"STATIONNUMBER" : "0001/-531",
				"STATIONNAME" : "Všehrdova 439/11",
				"CITYDISTRICTRUIANCODE" : 500054,
				"CITYDISTRICT" : "Praha 1",
				"PRISTUP" : "obyvatelům domu"
			}
		},
		{
			"type" : "Feature",
			"geometry" : {
				"type" : "Point",
				"coordinates" : [ 14.406321803000026, 50.082448656000054 ]
			},
			"properties" : {
				"OBJECTID" : 65,
				"ID" : 4051,
				"STATIONNUMBER" : "0001/-532",
				"STATIONNAME" : "Všehrdova 448/12",
				"CITYDISTRICTRUIANCODE" : 500054,
				"CITYDISTRICT" : "Praha 1",
				"PRISTUP" : "obyvatelům domu"
			}
		},
		{
			"type" : "Feature",
			"geometry" : {
				"type" : "Point",
				"coordinates" : [ 14.404694993000021, 50.08308523900007 ]
			},
			"properties" : {
				"OBJECTID" : 66,
				"ID" : 4052,
				"STATIONNUMBER" : "0001/-533",
				"STATIONNAME" : "Všehrdova 435/21",
				"CITYDISTRICTRUIANCODE" : 500054,
				"CITYDISTRICT" : "Praha 1",
				"PRISTUP" : "obyvatelům domu"
			}
		},
		{
			"type" : "Feature",
			"geometry" : {
				"type" : "Point",
				"coordinates" : [ 14.430474849000063, 50.08010023000003 ]
			},
			"properties" : {
				"OBJECTID" : 67,
				"ID" : 4055,
				"STATIONNUMBER" : "0001/-536",
				"STATIONNAME" : "Washingtonova 1760/3",
				"CITYDISTRICTRUIANCODE" : 500054,
				"CITYDISTRICT" : "Praha 1",
				"PRISTUP" : "obyvatelům domu"
			}
		},
		{
			"type" : "Feature",
			"geometry" : {
				"type" : "Point",
				"coordinates" : [ 14.432288927000059, 50.090527870000074 ]
			},
			"properties" : {
				"OBJECTID" : 68,
				"ID" : 4057,
				"STATIONNUMBER" : "0001/-538",
				"STATIONNAME" : "Zlatnická 1129/8",
				"CITYDISTRICTRUIANCODE" : 500054,
				"CITYDISTRICT" : "Praha 1",
				"PRISTUP" : "obyvatelům domu"
			}
		},
		{
			"type" : "Feature",
			"geometry" : {
				"type" : "Point",
				"coordinates" : [ 14.431981764000057, 50.09042646600005 ]
			},
			"properties" : {
				"OBJECTID" : 69,
				"ID" : 4058,
				"STATIONNUMBER" : "0001/-539",
				"STATIONNAME" : "Zlatnická 1123/9",
				"CITYDISTRICTRUIANCODE" : 500054,
				"CITYDISTRICT" : "Praha 1",
				"PRISTUP" : "obyvatelům domu"
			}
		},
		{
			"type" : "Feature",
			"geometry" : {
				"type" : "Point",
				"coordinates" : [ 14.417766007000068, 50.08836147000005 ]
			},
			"properties" : {
				"OBJECTID" : 70,
				"ID" : 4060,
				"STATIONNUMBER" : "0001/-541",
				"STATIONNAME" : "Žatecká 16/8",
				"CITYDISTRICTRUIANCODE" : 500054,
				"CITYDISTRICT" : "Praha 1",
				"PRISTUP" : "obyvatelům domu"
			}
		},
		{
			"type" : "Feature",
			"geometry" : {
				"type" : "Point",
				"coordinates" : [ 14.422421471000064, 50.08625774400008 ]
			},
			"properties" : {
				"OBJECTID" : 71,
				"ID" : 4063,
				"STATIONNUMBER" : "0001/-544",
				"STATIONNAME" : "Železná 493/20",
				"CITYDISTRICTRUIANCODE" : 500054,
				"CITYDISTRICT" : "Praha 1",
				"PRISTUP" : "obyvatelům domu"
			}
		},
		{
			"type" : "Feature",
			"geometry" : {
				"type" : "Point",
				"coordinates" : [ 14.42323827100006, 50.07743152100005 ]
			},
			"properties" : {
				"OBJECTID" : 72,
				"ID" : 4065,
				"STATIONNUMBER" : "0001/-546",
				"STATIONNAME" : "Žitná 657/13",
				"CITYDISTRICTRUIANCODE" : 500054,
				"CITYDISTRICT" : "Praha 1",
				"PRISTUP" : "obyvatelům domu"
			}
		},
		{
			"type" : "Feature",
			"geometry" : {
				"type" : "Point",
				"coordinates" : [ 14.426189390000047, 50.077301661000035 ]
			},
			"properties" : {
				"OBJECTID" : 73,
				"ID" : 4066,
				"STATIONNUMBER" : "0001/-547",
				"STATIONNAME" : "Žitná 606/29",
				"CITYDISTRICTRUIANCODE" : 500054,
				"CITYDISTRICT" : "Praha 1",
				"PRISTUP" : "obyvatelům domu"
			}
		},
		{
			"type" : "Feature",
			"geometry" : {
				"type" : "Point",
				"coordinates" : [ 14.403705854000066, 50.08966130500005 ]
			},
			"properties" : {
				"OBJECTID" : 74,
				"ID" : 4079,
				"STATIONNUMBER" : "0001/-561",
				"STATIONNAME" : "Sněmovní 174/7",
				"CITYDISTRICTRUIANCODE" : 500054,
				"CITYDISTRICT" : "Praha 1",
				"PRISTUP" : "obyvatelům domu"
			}
		},
		{
			"type" : "Feature",
			"geometry" : {
				"type" : "Point",
				"coordinates" : [ 14.390249779000044, 50.09124448800003 ]
			},
			"properties" : {
				"OBJECTID" : 75,
				"ID" : 4082,
				"STATIONNUMBER" : "0001/-564",
				"STATIONNAME" : "Nový Svět 89/4",
				"CITYDISTRICTRUIANCODE" : 500054,
				"CITYDISTRICT" : "Praha 1",
				"PRISTUP" : "obyvatelům domu"
			}
		},
		{
			"type" : "Feature",
			"geometry" : {
				"type" : "Point",
				"coordinates" : [ 14.406447695000054, 50.082316096000056 ]
			},
			"properties" : {
				"OBJECTID" : 76,
				"ID" : 4086,
				"STATIONNUMBER" : "0001/-568",
				"STATIONNAME" : "Všehrdova 447/10",
				"CITYDISTRICTRUIANCODE" : 500054,
				"CITYDISTRICT" : "Praha 1",
				"PRISTUP" : "obyvatelům domu"
			}
		},
		{
			"type" : "Feature",
			"geometry" : {
				"type" : "Point",
				"coordinates" : [ 14.404103279000026, 50.08282198300003 ]
			},
			"properties" : {
				"OBJECTID" : 77,
				"ID" : 4089,
				"STATIONNUMBER" : "0001/-571",
				"STATIONNAME" : "U lanové dráhy 409/2",
				"CITYDISTRICTRUIANCODE" : 500054,
				"CITYDISTRICT" : "Praha 1",
				"PRISTUP" : "obyvatelům domu"
			}
		},
		{
			"type" : "Feature",
			"geometry" : {
				"type" : "Point",
				"coordinates" : [ 14.400784815000065, 50.087446915000044 ]
			},
			"properties" : {
				"OBJECTID" : 78,
				"ID" : 4092,
				"STATIONNUMBER" : "0001/-574",
				"STATIONNAME" : "Břetislavova 364/1",
				"CITYDISTRICTRUIANCODE" : 500054,
				"CITYDISTRICT" : "Praha 1",
				"PRISTUP" : "obyvatelům domu"
			}
		},
		{
			"type" : "Feature",
			"geometry" : {
				"type" : "Point",
				"coordinates" : [ 14.410589852000044, 50.09119810300007 ]
			},
			"properties" : {
				"OBJECTID" : 79,
				"ID" : 4095,
				"STATIONNUMBER" : "0001/-577",
				"STATIONNAME" : "U Železné lávky 610/14",
				"CITYDISTRICTRUIANCODE" : 500054,
				"CITYDISTRICT" : "Praha 1",
				"PRISTUP" : "obyvatelům domu"
			}
		},
		{
			"type" : "Feature",
			"geometry" : {
				"type" : "Point",
				"coordinates" : [ 14.395461328000067, 50.08823774500007 ]
			},
			"properties" : {
				"OBJECTID" : 80,
				"ID" : 4096,
				"STATIONNUMBER" : "0001/-578",
				"STATIONNAME" : "Úvoz 227/9",
				"CITYDISTRICTRUIANCODE" : 500054,
				"CITYDISTRICT" : "Praha 1",
				"PRISTUP" : "obyvatelům domu"
			}
		},
		{
			"type" : "Feature",
			"geometry" : {
				"type" : "Point",
				"coordinates" : [ 14.424135746000047, 50.07776363000005 ]
			},
			"properties" : {
				"OBJECTID" : 81,
				"ID" : 4100,
				"STATIONNUMBER" : "0001/-582",
				"STATIONNAME" : "Školská 1305/6",
				"CITYDISTRICTRUIANCODE" : 500054,
				"CITYDISTRICT" : "Praha 1",
				"PRISTUP" : "obyvatelům domu"
			}
		},
		{
			"type" : "Feature",
			"geometry" : {
				"type" : "Point",
				"coordinates" : [ 14.424499663000063, 50.07892898400007 ]
			},
			"properties" : {
				"OBJECTID" : 82,
				"ID" : 4101,
				"STATIONNUMBER" : "0001/-583",
				"STATIONNAME" : "Školská 689/20",
				"CITYDISTRICTRUIANCODE" : 500054,
				"CITYDISTRICT" : "Praha 1",
				"PRISTUP" : "obyvatelům domu"
			}
		},
		{
			"type" : "Feature",
			"geometry" : {
				"type" : "Point",
				"coordinates" : [ 14.427747967000073, 50.07806384600008 ]
			},
			"properties" : {
				"OBJECTID" : 83,
				"ID" : 4104,
				"STATIONNUMBER" : "0001/-586",
				"STATIONNAME" : "Krakovská 583/9",
				"CITYDISTRICTRUIANCODE" : 500054,
				"CITYDISTRICT" : "Praha 1",
				"PRISTUP" : "obyvatelům domu"
			}
		},
		{
			"type" : "Feature",
			"geometry" : {
				"type" : "Point",
				"coordinates" : [ 14.41654449300006, 50.08561146800008 ]
			},
			"properties" : {
				"OBJECTID" : 84,
				"ID" : 4114,
				"STATIONNUMBER" : "0001/-596",
				"STATIONNAME" : "Liliová 1069/16",
				"CITYDISTRICTRUIANCODE" : 500054,
				"CITYDISTRICT" : "Praha 1",
				"PRISTUP" : "obyvatelům domu"
			}
		},
		{
			"type" : "Feature",
			"geometry" : {
				"type" : "Point",
				"coordinates" : [ 14.424800832000074, 50.091761707000046 ]
			},
			"properties" : {
				"OBJECTID" : 85,
				"ID" : 4133,
				"STATIONNUMBER" : "0001/-616",
				"STATIONNAME" : "Řásnovka 783/1",
				"CITYDISTRICTRUIANCODE" : 500054,
				"CITYDISTRICT" : "Praha 1",
				"PRISTUP" : "obyvatelům domu"
			}
		},
		{
			"type" : "Feature",
			"geometry" : {
				"type" : "Point",
				"coordinates" : [ 14.423458044000029, 50.09130016000006 ]
			},
			"properties" : {
				"OBJECTID" : 86,
				"ID" : 4134,
				"STATIONNUMBER" : "0001/-617",
				"STATIONNAME" : "U obecního dvora 802/8",
				"CITYDISTRICTRUIANCODE" : 500054,
				"CITYDISTRICT" : "Praha 1",
				"PRISTUP" : "obyvatelům domu"
			}
		},
		{
			"type" : "Feature",
			"geometry" : {
				"type" : "Point",
				"coordinates" : [ 14.426233904000071, 50.08789208700006 ]
			},
			"properties" : {
				"OBJECTID" : 87,
				"ID" : 4135,
				"STATIONNUMBER" : "0001/-618",
				"STATIONNAME" : "Rybná 651/1",
				"CITYDISTRICTRUIANCODE" : 500054,
				"CITYDISTRICT" : "Praha 1",
				"PRISTUP" : "obyvatelům domu"
			}
		},
		{
			"type" : "Feature",
			"geometry" : {
				"type" : "Point",
				"coordinates" : [ 14.426270618000046, 50.08872068900007 ]
			},
			"properties" : {
				"OBJECTID" : 88,
				"ID" : 4136,
				"STATIONNUMBER" : "0001/-619",
				"STATIONNAME" : "Rybná 677/8",
				"CITYDISTRICTRUIANCODE" : 500054,
				"CITYDISTRICT" : "Praha 1",
				"PRISTUP" : "obyvatelům domu"
			}
		},
		{
			"type" : "Feature",
			"geometry" : {
				"type" : "Point",
				"coordinates" : [ 14.422042058000045, 50.07980111400008 ]
			},
			"properties" : {
				"OBJECTID" : 89,
				"ID" : 4138,
				"STATIONNUMBER" : "0001/-622",
				"STATIONNAME" : "Jungmannova 18/5",
				"CITYDISTRICTRUIANCODE" : 500054,
				"CITYDISTRICT" : "Praha 1",
				"PRISTUP" : "obyvatelům domu"
			}
		},
		{
			"type" : "Feature",
			"geometry" : {
				"type" : "Point",
				"coordinates" : [ 14.406447695000054, 50.082316096000056 ]
			},
			"properties" : {
				"OBJECTID" : 90,
				"ID" : 4140,
				"STATIONNUMBER" : "0001/-624",
				"STATIONNAME" : "Všehrdova 447/10",
				"CITYDISTRICTRUIANCODE" : 500054,
				"CITYDISTRICT" : "Praha 1",
				"PRISTUP" : "obyvatelům domu"
			}
		},
		{
			"type" : "Feature",
			"geometry" : {
				"type" : "Point",
				"coordinates" : [ 14.429457662000061, 50.07887195200004 ]
			},
			"properties" : {
				"OBJECTID" : 91,
				"ID" : 4141,
				"STATIONNUMBER" : "0001/-626",
				"STATIONNAME" : "Mezibranská 577/19",
				"CITYDISTRICTRUIANCODE" : 500054,
				"CITYDISTRICT" : "Praha 1",
				"PRISTUP" : "obyvatelům domu"
			}
		},
		{
			"type" : "Feature",
			"geometry" : {
				"type" : "Point",
				"coordinates" : [ 14.42510397600006, 50.079869891000044 ]
			},
			"properties" : {
				"OBJECTID" : 92,
				"ID" : 4142,
				"STATIONNUMBER" : "0001/-627",
				"STATIONNAME" : "V jámě 637/10",
				"CITYDISTRICTRUIANCODE" : 500054,
				"CITYDISTRICT" : "Praha 1",
				"PRISTUP" : "obyvatelům domu"
			}
		},
		{
			"type" : "Feature",
			"geometry" : {
				"type" : "Point",
				"coordinates" : [ 14.424415096000075, 50.08321498400005 ]
			},
			"properties" : {
				"OBJECTID" : 93,
				"ID" : 4144,
				"STATIONNUMBER" : "0001/-629",
				"STATIONNAME" : "Václavské náměstí 778/14",
				"CITYDISTRICTRUIANCODE" : 500054,
				"CITYDISTRICT" : "Praha 1",
				"PRISTUP" : "obyvatelům domu"
			}
		},
		{
			"type" : "Feature",
			"geometry" : {
				"type" : "Point",
				"coordinates" : [ 14.430704801000047, 50.083447619000026 ]
			},
			"properties" : {
				"OBJECTID" : 94,
				"ID" : 4145,
				"STATIONNUMBER" : "0001/-630",
				"STATIONNAME" : "Růžová 951/13",
				"CITYDISTRICTRUIANCODE" : 500054,
				"CITYDISTRICT" : "Praha 1",
				"PRISTUP" : "obyvatelům domu"
			}
		},
		{
			"type" : "Feature",
			"geometry" : {
				"type" : "Point",
				"coordinates" : [ 14.430962942000065, 50.08240172600006 ]
			},
			"properties" : {
				"OBJECTID" : 95,
				"ID" : 4146,
				"STATIONNUMBER" : "0001/-632",
				"STATIONNAME" : "Opletalova 1323/15",
				"CITYDISTRICTRUIANCODE" : 500054,
				"CITYDISTRICT" : "Praha 1",
				"PRISTUP" : "obyvatelům domu"
			}
		},
		{
			"type" : "Feature",
			"geometry" : {
				"type" : "Point",
				"coordinates" : [ 14.432561146000069, 50.08474286400008 ]
			},
			"properties" : {
				"OBJECTID" : 96,
				"ID" : 4163,
				"STATIONNUMBER" : "0001/-650",
				"STATIONNAME" : "Jeruzalémská 1283/9",
				"CITYDISTRICTRUIANCODE" : 500054,
				"CITYDISTRICT" : "Praha 1",
				"PRISTUP" : "obyvatelům domu"
			}
		},
		{
			"type" : "Feature",
			"geometry" : {
				"type" : "Point",
				"coordinates" : [ 14.428493747000061, 50.08397478100005 ]
			},
			"properties" : {
				"OBJECTID" : 97,
				"ID" : 4164,
				"STATIONNUMBER" : "0001/-651",
				"STATIONNAME" : "Jindřišská 938/18",
				"CITYDISTRICTRUIANCODE" : 500054,
				"CITYDISTRICT" : "Praha 1",
				"PRISTUP" : "obyvatelům domu"
			}
		},
		{
			"type" : "Feature",
			"geometry" : {
				"type" : "Point",
				"coordinates" : [ 14.40560195200004, 50.08807385100005 ]
			},
			"properties" : {
				"OBJECTID" : 98,
				"ID" : 4165,
				"STATIONNUMBER" : "0001/-652",
				"STATIONNAME" : "Josefská 43/4",
				"CITYDISTRICTRUIANCODE" : 500054,
				"CITYDISTRICT" : "Praha 1",
				"PRISTUP" : "obyvatelům domu"
			}
		},
		{
			"type" : "Feature",
			"geometry" : {
				"type" : "Point",
				"coordinates" : [ 14.42211078300005, 50.091088511000066 ]
			},
			"properties" : {
				"OBJECTID" : 99,
				"ID" : 4171,
				"STATIONNUMBER" : "0001/-658",
				"STATIONNAME" : "Kozí 857/15",
				"CITYDISTRICTRUIANCODE" : 500054,
				"CITYDISTRICT" : "Praha 1",
				"PRISTUP" : "obyvatelům domu"
			}
		},
		{
			"type" : "Feature",
			"geometry" : {
				"type" : "Point",
				"coordinates" : [ 14.426768312000036, 50.088143855000055 ]
			},
			"properties" : {
				"OBJECTID" : 100,
				"ID" : 4172,
				"STATIONNUMBER" : "0001/-660",
				"STATIONNAME" : "Králodvorská 665/9",
				"CITYDISTRICTRUIANCODE" : 500054,
				"CITYDISTRICT" : "Praha 1",
				"PRISTUP" : "obyvatelům domu"
			}
		},
		{
			"type" : "Feature",
			"geometry" : {
				"type" : "Point",
				"coordinates" : [ 14.416040390000035, 50.07884099100005 ]
			},
			"properties" : {
				"OBJECTID" : 101,
				"ID" : 4188,
				"STATIONNUMBER" : "0001/-677",
				"STATIONNAME" : "Pštrossova 190/18",
				"CITYDISTRICTRUIANCODE" : 500054,
				"CITYDISTRICT" : "Praha 1",
				"PRISTUP" : "obyvatelům domu"
			}
		},
		{
			"type" : "Feature",
			"geometry" : {
				"type" : "Point",
				"coordinates" : [ 14.423835086000054, 50.09037349000005 ]
			},
			"properties" : {
				"OBJECTID" : 102,
				"ID" : 4189,
				"STATIONNUMBER" : "0001/-678",
				"STATIONNAME" : "Rámová 1071/3",
				"CITYDISTRICTRUIANCODE" : 500054,
				"CITYDISTRICT" : "Praha 1",
				"PRISTUP" : "obyvatelům domu"
			}
		},
		{
			"type" : "Feature",
			"geometry" : {
				"type" : "Point",
				"coordinates" : [ 14.427743419000024, 50.090080414000056 ]
			},
			"properties" : {
				"OBJECTID" : 103,
				"ID" : 4190,
				"STATIONNUMBER" : "0001/-679",
				"STATIONNAME" : "Revoluční 1006/5",
				"CITYDISTRICTRUIANCODE" : 500054,
				"CITYDISTRICT" : "Praha 1",
				"PRISTUP" : "obyvatelům domu"
			}
		},
		{
			"type" : "Feature",
			"geometry" : {
				"type" : "Point",
				"coordinates" : [ 14.433132846000035, 50.08621624500006 ]
			},
			"properties" : {
				"OBJECTID" : 104,
				"ID" : 4191,
				"STATIONNUMBER" : "0001/-681",
				"STATIONNAME" : "Senovážné náměstí 1986/12",
				"CITYDISTRICTRUIANCODE" : 500054,
				"CITYDISTRICT" : "Praha 1",
				"PRISTUP" : "obyvatelům domu"
			}
		},
		{
			"type" : "Feature",
			"geometry" : {
				"type" : "Point",
				"coordinates" : [ 14.43294056600007, 50.08582414500006 ]
			},
			"properties" : {
				"OBJECTID" : 105,
				"ID" : 4192,
				"STATIONNUMBER" : "0001/-682",
				"STATIONNAME" : "Senovážné náměstí 984/18",
				"CITYDISTRICTRUIANCODE" : 500054,
				"CITYDISTRICT" : "Praha 1",
				"PRISTUP" : "obyvatelům domu"
			}
		},
		{
			"type" : "Feature",
			"geometry" : {
				"type" : "Point",
				"coordinates" : [ 14.43119551500007, 50.08543628500007 ]
			},
			"properties" : {
				"OBJECTID" : 106,
				"ID" : 4193,
				"STATIONNUMBER" : "0001/-683",
				"STATIONNAME" : "Senovážné náměstí 977/24",
				"CITYDISTRICTRUIANCODE" : 500054,
				"CITYDISTRICT" : "Praha 1",
				"PRISTUP" : "obyvatelům domu"
			}
		},
		{
			"type" : "Feature",
			"geometry" : {
				"type" : "Point",
				"coordinates" : [ 14.431201033000036, 50.091599881000036 ]
			},
			"properties" : {
				"OBJECTID" : 107,
				"ID" : 4194,
				"STATIONNUMBER" : "0001/-684",
				"STATIONNAME" : "Soukenická 2060/27",
				"CITYDISTRICTRUIANCODE" : 500054,
				"CITYDISTRICT" : "Praha 1",
				"PRISTUP" : "obyvatelům domu"
			}
		},
		{
			"type" : "Feature",
			"geometry" : {
				"type" : "Point",
				"coordinates" : [ 14.419021886000053, 50.082133816000066 ]
			},
			"properties" : {
				"OBJECTID" : 108,
				"ID" : 4195,
				"STATIONNUMBER" : "0001/-685",
				"STATIONNAME" : "Spálená 114/59",
				"CITYDISTRICTRUIANCODE" : 500054,
				"CITYDISTRICT" : "Praha 1",
				"PRISTUP" : "obyvatelům domu"
			}
		},
		{
			"type" : "Feature",
			"geometry" : {
				"type" : "Point",
				"coordinates" : [ 14.417470085000048, 50.08896696100004 ]
			},
			"properties" : {
				"OBJECTID" : 109,
				"ID" : 4196,
				"STATIONNUMBER" : "0001/-686",
				"STATIONNAME" : "Široká 25/6",
				"CITYDISTRICTRUIANCODE" : 500054,
				"CITYDISTRICT" : "Praha 1",
				"PRISTUP" : "obyvatelům domu"
			}
		},
		{
			"type" : "Feature",
			"geometry" : {
				"type" : "Point",
				"coordinates" : [ 14.418708757000047, 50.089319086000046 ]
			},
			"properties" : {
				"OBJECTID" : 110,
				"ID" : 4197,
				"STATIONNUMBER" : "0001/-687",
				"STATIONNAME" : "Široká 96/9",
				"CITYDISTRICTRUIANCODE" : 500054,
				"CITYDISTRICT" : "Praha 1",
				"PRISTUP" : "obyvatelům domu"
			}
		},
		{
			"type" : "Feature",
			"geometry" : {
				"type" : "Point",
				"coordinates" : [ 14.40619001300007, 50.081420593000075 ]
			},
			"properties" : {
				"OBJECTID" : 111,
				"ID" : 4198,
				"STATIONNUMBER" : "0001/-688",
				"STATIONNAME" : "Šeříková 564/6",
				"CITYDISTRICTRUIANCODE" : 500054,
				"CITYDISTRICT" : "Praha 1",
				"PRISTUP" : "obyvatelům domu"
			}
		},
		{
			"type" : "Feature",
			"geometry" : {
				"type" : "Point",
				"coordinates" : [ 14.419502746000035, 50.08710308500008 ]
			},
			"properties" : {
				"OBJECTID" : 112,
				"ID" : 4208,
				"STATIONNUMBER" : "0001/-698",
				"STATIONNAME" : "U Radnice 10/2",
				"CITYDISTRICTRUIANCODE" : 500054,
				"CITYDISTRICT" : "Praha 1",
				"PRISTUP" : "obyvatelům domu"
			}
		},
		{
			"type" : "Feature",
			"geometry" : {
				"type" : "Point",
				"coordinates" : [ 14.419846622000023, 50.087471547000064 ]
			},
			"properties" : {
				"OBJECTID" : 113,
				"ID" : 4209,
				"STATIONNUMBER" : "0001/-699",
				"STATIONNAME" : "Mikulášská 21/6",
				"CITYDISTRICTRUIANCODE" : 500054,
				"CITYDISTRICT" : "Praha 1",
				"PRISTUP" : "obyvatelům domu"
			}
		},
		{
			"type" : "Feature",
			"geometry" : {
				"type" : "Point",
				"coordinates" : [ 14.420009266000022, 50.08383232700004 ]
			},
			"properties" : {
				"OBJECTID" : 114,
				"ID" : 4211,
				"STATIONNUMBER" : "0001/-701",
				"STATIONNAME" : "Uhelný trh 423/2",
				"CITYDISTRICTRUIANCODE" : 500054,
				"CITYDISTRICT" : "Praha 1",
				"PRISTUP" : "obyvatelům domu"
			}
		},
		{
			"type" : "Feature",
			"geometry" : {
				"type" : "Point",
				"coordinates" : [ 14.40382128400006, 50.08310129500006 ]
			},
			"properties" : {
				"OBJECTID" : 115,
				"ID" : 4212,
				"STATIONNUMBER" : "0001/-702",
				"STATIONNAME" : "Újezd 407/23",
				"CITYDISTRICTRUIANCODE" : 500054,
				"CITYDISTRICT" : "Praha 1",
				"PRISTUP" : "obyvatelům domu"
			}
		},
		{
			"type" : "Feature",
			"geometry" : {
				"type" : "Point",
				"coordinates" : [ 14.40359352400003, 50.08333813100006 ]
			},
			"properties" : {
				"OBJECTID" : 116,
				"ID" : 4213,
				"STATIONNUMBER" : "0001/-703",
				"STATIONNAME" : "Újezd 404/29",
				"CITYDISTRICTRUIANCODE" : 500054,
				"CITYDISTRICT" : "Praha 1",
				"PRISTUP" : "obyvatelům domu"
			}
		},
		{
			"type" : "Feature",
			"geometry" : {
				"type" : "Point",
				"coordinates" : [ 14.424272286000075, 50.08045236100003 ]
			},
			"properties" : {
				"OBJECTID" : 117,
				"ID" : 4214,
				"STATIONNUMBER" : "0001/-704",
				"STATIONNAME" : "V jámě 699/1",
				"CITYDISTRICTRUIANCODE" : 500054,
				"CITYDISTRICT" : "Praha 1",
				"PRISTUP" : "obyvatelům domu"
			}
		},
		{
			"type" : "Feature",
			"geometry" : {
				"type" : "Point",
				"coordinates" : [ 14.421938340000054, 50.089907450000055 ]
			},
			"properties" : {
				"OBJECTID" : 118,
				"ID" : 4215,
				"STATIONNUMBER" : "0001/-705",
				"STATIONNAME" : "V Kolkovně 919/4",
				"CITYDISTRICTRUIANCODE" : 500054,
				"CITYDISTRICT" : "Praha 1",
				"PRISTUP" : "obyvatelům domu"
			}
		},
		{
			"type" : "Feature",
			"geometry" : {
				"type" : "Point",
				"coordinates" : [ 14.427459537000061, 50.07913830600006 ]
			},
			"properties" : {
				"OBJECTID" : 119,
				"ID" : 4220,
				"STATIONNUMBER" : "0001/-710",
				"STATIONNAME" : "Ve Smečkách 593/24",
				"CITYDISTRICTRUIANCODE" : 500054,
				"CITYDISTRICT" : "Praha 1",
				"PRISTUP" : "obyvatelům domu"
			}
		},
		{
			"type" : "Feature",
			"geometry" : {
				"type" : "Point",
				"coordinates" : [ 14.419157952000035, 50.08439379300006 ]
			},
			"properties" : {
				"OBJECTID" : 120,
				"ID" : 4221,
				"STATIONNUMBER" : "0001/-711",
				"STATIONNAME" : "Vejvodova 941/4",
				"CITYDISTRICTRUIANCODE" : 500054,
				"CITYDISTRICT" : "Praha 1",
				"PRISTUP" : "obyvatelům domu"
			}
		},
		{
			"type" : "Feature",
			"geometry" : {
				"type" : "Point",
				"coordinates" : [ 14.40643229400007, 50.08218480700003 ]
			},
			"properties" : {
				"OBJECTID" : 121,
				"ID" : 4224,
				"STATIONNUMBER" : "0001/-714",
				"STATIONNAME" : "Všehrdova 440/9",
				"CITYDISTRICTRUIANCODE" : 500054,
				"CITYDISTRICT" : "Praha 1",
				"PRISTUP" : "obyvatelům domu"
			}
		},
		{
			"type" : "Feature",
			"geometry" : {
				"type" : "Point",
				"coordinates" : [ 14.425652011000068, 50.07936331700006 ]
			},
			"properties" : {
				"OBJECTID" : 122,
				"ID" : 4226,
				"STATIONNUMBER" : "0001/-716",
				"STATIONNAME" : "Štěpánská 641/43",
				"CITYDISTRICTRUIANCODE" : 500054,
				"CITYDISTRICT" : "Praha 1",
				"PRISTUP" : "obyvatelům domu"
			}
		},
		{
			"type" : "Feature",
			"geometry" : {
				"type" : "Point",
				"coordinates" : [ 14.41881710000007, 50.08426222700007 ]
			},
			"properties" : {
				"OBJECTID" : 123,
				"ID" : 4227,
				"STATIONNUMBER" : "0001/-717",
				"STATIONNAME" : "Jilská 353/4",
				"CITYDISTRICTRUIANCODE" : 500054,
				"CITYDISTRICT" : "Praha 1",
				"PRISTUP" : "obyvatelům domu"
			}
		},
		{
			"type" : "Feature",
			"geometry" : {
				"type" : "Point",
				"coordinates" : [ 14.421111432000032, 50.08943352600005 ]
			},
			"properties" : {
				"OBJECTID" : 124,
				"ID" : 4228,
				"STATIONNUMBER" : "0001/-718",
				"STATIONNAME" : "Dušní 906/8",
				"CITYDISTRICTRUIANCODE" : 500054,
				"CITYDISTRICT" : "Praha 1",
				"PRISTUP" : "obyvatelům domu"
			}
		},
		{
			"type" : "Feature",
			"geometry" : {
				"type" : "Point",
				"coordinates" : [ 14.422196453000026, 50.081525498000076 ]
			},
			"properties" : {
				"OBJECTID" : 125,
				"ID" : 4235,
				"STATIONNUMBER" : "0001/-725",
				"STATIONNAME" : "Jungmannova 749/32",
				"CITYDISTRICTRUIANCODE" : 500054,
				"CITYDISTRICT" : "Praha 1",
				"PRISTUP" : "obyvatelům domu"
			}
		},
		{
			"type" : "Feature",
			"geometry" : {
				"type" : "Point",
				"coordinates" : [ 14.420081032000041, 50.083167065000055 ]
			},
			"properties" : {
				"OBJECTID" : 126,
				"ID" : 4236,
				"STATIONNUMBER" : "0001/-726",
				"STATIONNAME" : "Martinská 416/10",
				"CITYDISTRICTRUIANCODE" : 500054,
				"CITYDISTRICT" : "Praha 1",
				"PRISTUP" : "obyvatelům domu"
			}
		},
		{
			"type" : "Feature",
			"geometry" : {
				"type" : "Point",
				"coordinates" : [ 14.425603909000074, 50.08995208700003 ]
			},
			"properties" : {
				"OBJECTID" : 127,
				"ID" : 4239,
				"STATIONNUMBER" : "0001/-729",
				"STATIONNAME" : "Masná 696/21",
				"CITYDISTRICTRUIANCODE" : 500054,
				"CITYDISTRICT" : "Praha 1",
				"PRISTUP" : "obyvatelům domu"
			}
		},
		{
			"type" : "Feature",
			"geometry" : {
				"type" : "Point",
				"coordinates" : [ 14.42697383500007, 50.079670727000064 ]
			},
			"properties" : {
				"OBJECTID" : 128,
				"ID" : 4240,
				"STATIONNUMBER" : "0001/-730",
				"STATIONNAME" : "Ve Smečkách 1920/27",
				"CITYDISTRICTRUIANCODE" : 500054,
				"CITYDISTRICT" : "Praha 1",
				"PRISTUP" : "obyvatelům domu"
			}
		},
		{
			"type" : "Feature",
			"geometry" : {
				"type" : "Point",
				"coordinates" : [ 14.425905872000044, 50.09069997200004 ]
			},
			"properties" : {
				"OBJECTID" : 129,
				"ID" : 4241,
				"STATIONNUMBER" : "0001/-731",
				"STATIONNAME" : "Dlouhá 731/33",
				"CITYDISTRICTRUIANCODE" : 500054,
				"CITYDISTRICT" : "Praha 1",
				"PRISTUP" : "obyvatelům domu"
			}
		},
		{
			"type" : "Feature",
			"geometry" : {
				"type" : "Point",
				"coordinates" : [ 14.416936190000058, 50.08020490100006 ]
			},
			"properties" : {
				"OBJECTID" : 130,
				"ID" : 4242,
				"STATIONNUMBER" : "0001/-732",
				"STATIONNAME" : "Voršilská 142/6",
				"CITYDISTRICTRUIANCODE" : 500054,
				"CITYDISTRICT" : "Praha 1",
				"PRISTUP" : "obyvatelům domu"
			}
		},
		{
			"type" : "Feature",
			"geometry" : {
				"type" : "Point",
				"coordinates" : [ 14.41738957800004, 50.088165512000046 ]
			},
			"properties" : {
				"OBJECTID" : 131,
				"ID" : 4243,
				"STATIONNUMBER" : "0001/-733",
				"STATIONNAME" : "Kaprova 45/10",
				"CITYDISTRICTRUIANCODE" : 500054,
				"CITYDISTRICT" : "Praha 1",
				"PRISTUP" : "obyvatelům domu"
			}
		},
		{
			"type" : "Feature",
			"geometry" : {
				"type" : "Point",
				"coordinates" : [ 14.418073269000047, 50.077965704000064 ]
			},
			"properties" : {
				"OBJECTID" : 132,
				"ID" : 4244,
				"STATIONNUMBER" : "0001/-734",
				"STATIONNAME" : "Myslíkova 174/23",
				"CITYDISTRICTRUIANCODE" : 500054,
				"CITYDISTRICT" : "Praha 1",
				"PRISTUP" : "obyvatelům domu"
			}
		},
		{
			"type" : "Feature",
			"geometry" : {
				"type" : "Point",
				"coordinates" : [ 14.416281021000032, 50.078034255000034 ]
			},
			"properties" : {
				"OBJECTID" : 133,
				"ID" : 4245,
				"STATIONNUMBER" : "0001/-735",
				"STATIONNAME" : "Pštrossova 1925/6",
				"CITYDISTRICTRUIANCODE" : 500054,
				"CITYDISTRICT" : "Praha 1",
				"PRISTUP" : "obyvatelům domu"
			}
		},
		{
			"type" : "Feature",
			"geometry" : {
				"type" : "Point",
				"coordinates" : [ 14.421468321000077, 50.09104506800003 ]
			},
			"properties" : {
				"OBJECTID" : 134,
				"ID" : 4249,
				"STATIONNUMBER" : "0001/-739",
				"STATIONNAME" : "Bílkova 862/16",
				"CITYDISTRICTRUIANCODE" : 500054,
				"CITYDISTRICT" : "Praha 1",
				"PRISTUP" : "obyvatelům domu"
			}
		},
		{
			"type" : "Feature",
			"geometry" : {
				"type" : "Point",
				"coordinates" : [ 14.425861831000077, 50.07730967400005 ]
			},
			"properties" : {
				"OBJECTID" : 135,
				"ID" : 4250,
				"STATIONNUMBER" : "0001/-740",
				"STATIONNAME" : "Žitná 608/27",
				"CITYDISTRICTRUIANCODE" : 500054,
				"CITYDISTRICT" : "Praha 1",
				"PRISTUP" : "obyvatelům domu"
			}
		},
		{
			"type" : "Feature",
			"geometry" : {
				"type" : "Point",
				"coordinates" : [ 14.394414687000051, 50.088568793000036 ]
			},
			"properties" : {
				"OBJECTID" : 136,
				"ID" : 4251,
				"STATIONNUMBER" : "0001/-741",
				"STATIONNAME" : "Loretánská 176/7",
				"CITYDISTRICTRUIANCODE" : 500054,
				"CITYDISTRICT" : "Praha 1",
				"PRISTUP" : "obyvatelům domu"
			}
		},
		{
			"type" : "Feature",
			"geometry" : {
				"type" : "Point",
				"coordinates" : [ 14.422311008000065, 50.083649957000034 ]
			},
			"properties" : {
				"OBJECTID" : 137,
				"ID" : 4252,
				"STATIONNUMBER" : "0001/-742",
				"STATIONNAME" : "28.října 373/7",
				"CITYDISTRICTRUIANCODE" : 500054,
				"CITYDISTRICT" : "Praha 1",
				"PRISTUP" : "obyvatelům domu"
			}
		},
		{
			"type" : "Feature",
			"geometry" : {
				"type" : "Point",
				"coordinates" : [ 14.430773678000037, 50.082171249000055 ]
			},
			"properties" : {
				"OBJECTID" : 138,
				"ID" : 4253,
				"STATIONNUMBER" : "0001/-743",
				"STATIONNAME" : "Opletalova 933/13",
				"CITYDISTRICTRUIANCODE" : 500054,
				"CITYDISTRICT" : "Praha 1",
				"PRISTUP" : "obyvatelům domu"
			}
		},
		{
			"type" : "Feature",
			"geometry" : {
				"type" : "Point",
				"coordinates" : [ 14.404379437000046, 50.08597412700004 ]
			},
			"properties" : {
				"OBJECTID" : 139,
				"ID" : 4256,
				"STATIONNUMBER" : "0001/-746",
				"STATIONNAME" : "Karmelitská 382/14",
				"CITYDISTRICTRUIANCODE" : 500054,
				"CITYDISTRICT" : "Praha 1",
				"PRISTUP" : "obyvatelům domu"
			}
		},
		{
			"type" : "Feature",
			"geometry" : {
				"type" : "Point",
				"coordinates" : [ 14.419911038000066, 50.090284206000035 ]
			},
			"properties" : {
				"OBJECTID" : 140,
				"ID" : 4257,
				"STATIONNUMBER" : "0001/-747",
				"STATIONNAME" : "Elišky Krásnohorské 10/2",
				"CITYDISTRICTRUIANCODE" : 500054,
				"CITYDISTRICT" : "Praha 1",
				"PRISTUP" : "obyvatelům domu"
			}
		},
		{
			"type" : "Feature",
			"geometry" : {
				"type" : "Point",
				"coordinates" : [ 14.426071226000033, 50.09103969900008 ]
			},
			"properties" : {
				"OBJECTID" : 141,
				"ID" : 4258,
				"STATIONNUMBER" : "0001/-748",
				"STATIONNAME" : "Dlouhá 730/35",
				"CITYDISTRICTRUIANCODE" : 500054,
				"CITYDISTRICT" : "Praha 1",
				"PRISTUP" : "obyvatelům domu"
			}
		},
		{
			"type" : "Feature",
			"geometry" : {
				"type" : "Point",
				"coordinates" : [ 14.402689125000052, 50.08863237800006 ]
			},
			"properties" : {
				"OBJECTID" : 142,
				"ID" : 4259,
				"STATIONNUMBER" : "0001/-749",
				"STATIONNAME" : "Malostranské náměstí 272/1",
				"CITYDISTRICTRUIANCODE" : 500054,
				"CITYDISTRICT" : "Praha 1",
				"PRISTUP" : "obyvatelům domu"
			}
		},
		{
			"type" : "Feature",
			"geometry" : {
				"type" : "Point",
				"coordinates" : [ 14.419842704000075, 50.08880619900003 ]
			},
			"properties" : {
				"OBJECTID" : 143,
				"ID" : 4260,
				"STATIONNUMBER" : "0001/-750",
				"STATIONNAME" : "Pařížská 1068/10",
				"CITYDISTRICTRUIANCODE" : 500054,
				"CITYDISTRICT" : "Praha 1",
				"PRISTUP" : "obyvatelům domu"
			}
		},
		{
			"type" : "Feature",
			"geometry" : {
				"type" : "Point",
				"coordinates" : [ 14.423758884000051, 50.08516265800006 ]
			},
			"properties" : {
				"OBJECTID" : 144,
				"ID" : 4261,
				"STATIONNUMBER" : "0001/-751",
				"STATIONNAME" : "Provaznická 400/9",
				"CITYDISTRICTRUIANCODE" : 500054,
				"CITYDISTRICT" : "Praha 1",
				"PRISTUP" : "obyvatelům domu"
			}
		},
		{
			"type" : "Feature",
			"geometry" : {
				"type" : "Point",
				"coordinates" : [ 14.416605443000037, 50.08497392600003 ]
			},
			"properties" : {
				"OBJECTID" : 145,
				"ID" : 4269,
				"STATIONNUMBER" : "0001/-760",
				"STATIONNAME" : "Liliová 248/8",
				"CITYDISTRICTRUIANCODE" : 500054,
				"CITYDISTRICT" : "Praha 1",
				"PRISTUP" : "obyvatelům domu"
			}
		},
		{
			"type" : "Feature",
			"geometry" : {
				"type" : "Point",
				"coordinates" : [ 14.423000419000061, 50.08840094200008 ]
			},
			"properties" : {
				"OBJECTID" : 146,
				"ID" : 4270,
				"STATIONNUMBER" : "0001/-761",
				"STATIONNAME" : "Týnská 626/9",
				"CITYDISTRICTRUIANCODE" : 500054,
				"CITYDISTRICT" : "Praha 1",
				"PRISTUP" : "obyvatelům domu"
			}
		},
		{
			"type" : "Feature",
			"geometry" : {
				"type" : "Point",
				"coordinates" : [ 14.396192696000071, 50.086626058000036 ]
			},
			"properties" : {
				"OBJECTID" : 147,
				"ID" : 4271,
				"STATIONNUMBER" : "0001/-762",
				"STATIONNAME" : "Vlašská 339/23",
				"CITYDISTRICTRUIANCODE" : 500054,
				"CITYDISTRICT" : "Praha 1",
				"PRISTUP" : "obyvatelům domu"
			}
		},
		{
			"type" : "Feature",
			"geometry" : {
				"type" : "Point",
				"coordinates" : [ 14.431470744000023, 50.08935836900008 ]
			},
			"properties" : {
				"OBJECTID" : 148,
				"ID" : 4272,
				"STATIONNUMBER" : "0001/-763",
				"STATIONNAME" : "Na poříčí 1758/14",
				"CITYDISTRICTRUIANCODE" : 500054,
				"CITYDISTRICT" : "Praha 1",
				"PRISTUP" : "obyvatelům domu"
			}
		},
		{
			"type" : "Feature",
			"geometry" : {
				"type" : "Point",
				"coordinates" : [ 14.423460877000025, 50.07816592700004 ]
			},
			"properties" : {
				"OBJECTID" : 149,
				"ID" : 4273,
				"STATIONNUMBER" : "0001/-764",
				"STATIONNAME" : "Řeznická 1360/15",
				"CITYDISTRICTRUIANCODE" : 500054,
				"CITYDISTRICT" : "Praha 1",
				"PRISTUP" : "obyvatelům domu"
			}
		},
		{
			"type" : "Feature",
			"geometry" : {
				"type" : "Point",
				"coordinates" : [ 14.404121255000064, 50.083255604000044 ]
			},
			"properties" : {
				"OBJECTID" : 150,
				"ID" : 4274,
				"STATIONNUMBER" : "0001/-765",
				"STATIONNAME" : "Újezd 405/25",
				"CITYDISTRICTRUIANCODE" : 500054,
				"CITYDISTRICT" : "Praha 1",
				"PRISTUP" : "obyvatelům domu"
			}
		},
		{
			"type" : "Feature",
			"geometry" : {
				"type" : "Point",
				"coordinates" : [ 14.405416437000042, 50.08256732500007 ]
			},
			"properties" : {
				"OBJECTID" : 151,
				"ID" : 4276,
				"STATIONNUMBER" : "0001/-767",
				"STATIONNAME" : "Újezd 434/32",
				"CITYDISTRICTRUIANCODE" : 500054,
				"CITYDISTRICT" : "Praha 1",
				"PRISTUP" : "obyvatelům domu"
			}
		},
		{
			"type" : "Feature",
			"geometry" : {
				"type" : "Point",
				"coordinates" : [ 14.422128796000038, 50.088439136000034 ]
			},
			"properties" : {
				"OBJECTID" : 152,
				"ID" : 4277,
				"STATIONNUMBER" : "0001/-768",
				"STATIONNAME" : "Týnská ulička 607/5",
				"CITYDISTRICTRUIANCODE" : 500054,
				"CITYDISTRICT" : "Praha 1",
				"PRISTUP" : "obyvatelům domu"
			}
		},
		{
			"type" : "Feature",
			"geometry" : {
				"type" : "Point",
				"coordinates" : [ 14.42141373000004, 50.08128837900006 ]
			},
			"properties" : {
				"OBJECTID" : 153,
				"ID" : 4279,
				"STATIONNUMBER" : "0001/-770",
				"STATIONNAME" : "Purkyňova 2053/9",
				"CITYDISTRICTRUIANCODE" : 500054,
				"CITYDISTRICT" : "Praha 1",
				"PRISTUP" : "obyvatelům domu"
			}
		},
		{
			"type" : "Feature",
			"geometry" : {
				"type" : "Point",
				"coordinates" : [ 14.417902491000063, 50.07924290500006 ]
			},
			"properties" : {
				"OBJECTID" : 154,
				"ID" : 4280,
				"STATIONNUMBER" : "0001/-771",
				"STATIONNAME" : "Černá 1705/13",
				"CITYDISTRICTRUIANCODE" : 500054,
				"CITYDISTRICT" : "Praha 1",
				"PRISTUP" : "obyvatelům domu"
			}
		},
		{
			"type" : "Feature",
			"geometry" : {
				"type" : "Point",
				"coordinates" : [ 14.41726342000004, 50.07934784400004 ]
			},
			"properties" : {
				"OBJECTID" : 155,
				"ID" : 4281,
				"STATIONNUMBER" : "0001/-772",
				"STATIONNAME" : "Opatovická 165/10",
				"CITYDISTRICTRUIANCODE" : 500054,
				"CITYDISTRICT" : "Praha 1",
				"PRISTUP" : "obyvatelům domu"
			}
		},
		{
			"type" : "Feature",
			"geometry" : {
				"type" : "Point",
				"coordinates" : [ 14.418410963000042, 50.08848032900005 ]
			},
			"properties" : {
				"OBJECTID" : 156,
				"ID" : 4292,
				"STATIONNUMBER" : "0001/-806",
				"STATIONNAME" : "Maiselova 59/5",
				"CITYDISTRICTRUIANCODE" : 500054,
				"CITYDISTRICT" : "Praha 1",
				"PRISTUP" : "obyvatelům domu"
			}
		},
		{
			"type" : "Feature",
			"geometry" : {
				"type" : "Point",
				"coordinates" : [ 14.414173781000045, 50.078997601000026 ]
			},
			"properties" : {
				"OBJECTID" : 157,
				"ID" : 4294,
				"STATIONNUMBER" : "0001/-808",
				"STATIONNAME" : "Masarykovo nábřeží 234/26",
				"CITYDISTRICTRUIANCODE" : 500054,
				"CITYDISTRICT" : "Praha 1",
				"PRISTUP" : "obyvatelům domu"
			}
		},
		{
			"type" : "Feature",
			"geometry" : {
				"type" : "Point",
				"coordinates" : [ 14.418847448000065, 50.08107599500005 ]
			},
			"properties" : {
				"OBJECTID" : 158,
				"ID" : 4297,
				"STATIONNUMBER" : "0001/-811",
				"STATIONNAME" : "Ostrovní 1681/23",
				"CITYDISTRICTRUIANCODE" : 500054,
				"CITYDISTRICT" : "Praha 1",
				"PRISTUP" : "obyvatelům domu"
			}
		},
		{
			"type" : "Feature",
			"geometry" : {
				"type" : "Point",
				"coordinates" : [ 14.432332320000057, 50.089796576000026 ]
			},
			"properties" : {
				"OBJECTID" : 159,
				"ID" : 4298,
				"STATIONNUMBER" : "0001/-812",
				"STATIONNAME" : "Zlatnická 1073/1",
				"CITYDISTRICTRUIANCODE" : 500054,
				"CITYDISTRICT" : "Praha 1",
				"PRISTUP" : "obyvatelům domu"
			}
		},
		{
			"type" : "Feature",
			"geometry" : {
				"type" : "Point",
				"coordinates" : [ 14.417156465000062, 50.07848177900007 ]
			},
			"properties" : {
				"OBJECTID" : 160,
				"ID" : 4299,
				"STATIONNUMBER" : "0001/-813",
				"STATIONNAME" : "Křemencova 186/7",
				"CITYDISTRICTRUIANCODE" : 500054,
				"CITYDISTRICT" : "Praha 1",
				"PRISTUP" : "obyvatelům domu"
			}
		},
		{
			"type" : "Feature",
			"geometry" : {
				"type" : "Point",
				"coordinates" : [ 14.428164690000074, 50.090332327000056 ]
			},
			"properties" : {
				"OBJECTID" : 161,
				"ID" : 4301,
				"STATIONNUMBER" : "0001/-815",
				"STATIONNAME" : "Revoluční 1083/10",
				"CITYDISTRICTRUIANCODE" : 500054,
				"CITYDISTRICT" : "Praha 1",
				"PRISTUP" : "obyvatelům domu"
			}
		},
		{
			"type" : "Feature",
			"geometry" : {
				"type" : "Point",
				"coordinates" : [ 14.415023703000031, 50.07965439800006 ]
			},
			"properties" : {
				"OBJECTID" : 162,
				"ID" : 4302,
				"STATIONNUMBER" : "0001/-816",
				"STATIONNAME" : "Na struze 1740/7",
				"CITYDISTRICTRUIANCODE" : 500054,
				"CITYDISTRICT" : "Praha 1",
				"PRISTUP" : "obyvatelům domu"
			}
		},
		{
			"type" : "Feature",
			"geometry" : {
				"type" : "Point",
				"coordinates" : [ 14.435371971000052, 50.09095313100005 ]
			},
			"properties" : {
				"OBJECTID" : 163,
				"ID" : 4303,
				"STATIONNUMBER" : "0001/-817",
				"STATIONNAME" : "Biskupský dvůr 1149/4",
				"CITYDISTRICTRUIANCODE" : 500054,
				"CITYDISTRICT" : "Praha 1",
				"PRISTUP" : "obyvatelům domu"
			}
		},
		{
			"type" : "Feature",
			"geometry" : {
				"type" : "Point",
				"coordinates" : [ 14.414339597000037, 50.07795384500008 ]
			},
			"properties" : {
				"OBJECTID" : 164,
				"ID" : 4304,
				"STATIONNUMBER" : "0001/-818",
				"STATIONNAME" : "Masarykovo nábřeží 248/16",
				"CITYDISTRICTRUIANCODE" : 500054,
				"CITYDISTRICT" : "Praha 1",
				"PRISTUP" : "obyvatelům domu"
			}
		},
		{
			"type" : "Feature",
			"geometry" : {
				"type" : "Point",
				"coordinates" : [ 14.421307911000042, 50.07985273200006 ]
			},
			"properties" : {
				"OBJECTID" : 165,
				"ID" : 4305,
				"STATIONNUMBER" : "0001/-819",
				"STATIONNAME" : "Vladislavova 1388/6",
				"CITYDISTRICTRUIANCODE" : 500054,
				"CITYDISTRICT" : "Praha 1",
				"PRISTUP" : "obyvatelům domu"
			}
		},
		{
			"type" : "Feature",
			"geometry" : {
				"type" : "Point",
				"coordinates" : [ 14.41497324200003, 50.07803245500003 ]
			},
			"properties" : {
				"OBJECTID" : 166,
				"ID" : 4306,
				"STATIONNUMBER" : "0001/-820",
				"STATIONNAME" : "Vojtěšská 248/5",
				"CITYDISTRICTRUIANCODE" : 500054,
				"CITYDISTRICT" : "Praha 1",
				"PRISTUP" : "obyvatelům domu"
			}
		},
		{
			"type" : "Feature",
			"geometry" : {
				"type" : "Point",
				"coordinates" : [ 14.422527057000025, 50.07987119500007 ]
			},
			"properties" : {
				"OBJECTID" : 167,
				"ID" : 4307,
				"STATIONNUMBER" : "0001/-821",
				"STATIONNAME" : "Jungmannova 99999/4",
				"CITYDISTRICTRUIANCODE" : 500054,
				"CITYDISTRICT" : "Praha 1",
				"PRISTUP" : "obyvatelům domu"
			}
		},
		{
			"type" : "Feature",
			"geometry" : {
				"type" : "Point",
				"coordinates" : [ 14.431453580000039, 50.091119786000036 ]
			},
			"properties" : {
				"OBJECTID" : 168,
				"ID" : 4308,
				"STATIONNUMBER" : "0001/-822",
				"STATIONNAME" : "Truhlářská 1098/33",
				"CITYDISTRICTRUIANCODE" : 500054,
				"CITYDISTRICT" : "Praha 1",
				"PRISTUP" : "obyvatelům domu"
			}
		},
		{
			"type" : "Feature",
			"geometry" : {
				"type" : "Point",
				"coordinates" : [ 14.423624543000074, 50.085659013000054 ]
			},
			"properties" : {
				"OBJECTID" : 169,
				"ID" : 4309,
				"STATIONNUMBER" : "0001/-823",
				"STATIONNAME" : "Rytířská 398/26",
				"CITYDISTRICTRUIANCODE" : 500054,
				"CITYDISTRICT" : "Praha 1",
				"PRISTUP" : "obyvatelům domu"
			}
		},
		{
			"type" : "Feature",
			"geometry" : {
				"type" : "Point",
				"coordinates" : [ 14.424352803000033, 50.079003181000076 ]
			},
			"properties" : {
				"OBJECTID" : 170,
				"ID" : 4310,
				"STATIONNUMBER" : "0001/-824",
				"STATIONNAME" : "Školská 687/13",
				"CITYDISTRICTRUIANCODE" : 500054,
				"CITYDISTRICT" : "Praha 1",
				"PRISTUP" : "obyvatelům domu"
			}
		},
		{
			"type" : "Feature",
			"geometry" : {
				"type" : "Point",
				"coordinates" : [ 14.42619492700004, 50.08035518400004 ]
			},
			"properties" : {
				"OBJECTID" : 171,
				"ID" : 4327,
				"STATIONNUMBER" : "0001/-841",
				"STATIONNAME" : "Štěpánská 630/55",
				"CITYDISTRICTRUIANCODE" : 500054,
				"CITYDISTRICT" : "Praha 1",
				"PRISTUP" : "obyvatelům domu"
			}
		},
		{
			"type" : "Feature",
			"geometry" : {
				"type" : "Point",
				"coordinates" : [ 14.417855289000045, 50.08772264700008 ]
			},
			"properties" : {
				"OBJECTID" : 172,
				"ID" : 4328,
				"STATIONNUMBER" : "0001/-842",
				"STATIONNAME" : "Žatecká 41/4",
				"CITYDISTRICTRUIANCODE" : 500054,
				"CITYDISTRICT" : "Praha 1",
				"PRISTUP" : "obyvatelům domu"
			}
		},
		{
			"type" : "Feature",
			"geometry" : {
				"type" : "Point",
				"coordinates" : [ 14.427272218000041, 50.09050524200006 ]
			},
			"properties" : {
				"OBJECTID" : 173,
				"ID" : 4329,
				"STATIONNUMBER" : "0001/-843",
				"STATIONNAME" : "Benediktská 723/16",
				"CITYDISTRICTRUIANCODE" : 500054,
				"CITYDISTRICT" : "Praha 1",
				"PRISTUP" : "obyvatelům domu"
			}
		},
		{
			"type" : "Feature",
			"geometry" : {
				"type" : "Point",
				"coordinates" : [ 14.401766000000066, 50.08875661500008 ]
			},
			"properties" : {
				"OBJECTID" : 174,
				"ID" : 4330,
				"STATIONNUMBER" : "0001/-777",
				"STATIONNAME" : "Nerudova 206/4",
				"CITYDISTRICTRUIANCODE" : 500054,
				"CITYDISTRICT" : "Praha 1",
				"PRISTUP" : "obyvatelům domu"
			}
		},
		{
			"type" : "Feature",
			"geometry" : {
				"type" : "Point",
				"coordinates" : [ 14.427118704000065, 50.09050307000007 ]
			},
			"properties" : {
				"OBJECTID" : 175,
				"ID" : 4331,
				"STATIONNUMBER" : "0001/-778",
				"STATIONNAME" : "Benediktská 1100/13",
				"CITYDISTRICTRUIANCODE" : 500054,
				"CITYDISTRICT" : "Praha 1",
				"PRISTUP" : "obyvatelům domu"
			}
		},
		{
			"type" : "Feature",
			"geometry" : {
				"type" : "Point",
				"coordinates" : [ 14.422649424000042, 50.08008451200004 ]
			},
			"properties" : {
				"OBJECTID" : 176,
				"ID" : 4332,
				"STATIONNUMBER" : "0001/-779",
				"STATIONNAME" : "Jungmannova 734/8",
				"CITYDISTRICTRUIANCODE" : 500054,
				"CITYDISTRICT" : "Praha 1",
				"PRISTUP" : "obyvatelům domu"
			}
		},
		{
			"type" : "Feature",
			"geometry" : {
				"type" : "Point",
				"coordinates" : [ 14.42716533600003, 50.08983486300008 ]
			},
			"properties" : {
				"OBJECTID" : 177,
				"ID" : 4333,
				"STATIONNUMBER" : "0001/-780",
				"STATIONNAME" : "Benediktská 689/8",
				"CITYDISTRICTRUIANCODE" : 500054,
				"CITYDISTRICT" : "Praha 1",
				"PRISTUP" : "obyvatelům domu"
			}
		},
		{
			"type" : "Feature",
			"geometry" : {
				"type" : "Point",
				"coordinates" : [ 14.422295193000025, 50.08632675700005 ]
			},
			"properties" : {
				"OBJECTID" : 178,
				"ID" : 4334,
				"STATIONNUMBER" : "0001/-781",
				"STATIONNAME" : "Železná 492/18",
				"CITYDISTRICTRUIANCODE" : 500054,
				"CITYDISTRICT" : "Praha 1",
				"PRISTUP" : "obyvatelům domu"
			}
		},
		{
			"type" : "Feature",
			"geometry" : {
				"type" : "Point",
				"coordinates" : [ 14.41906115300003, 50.08982632000004 ]
			},
			"properties" : {
				"OBJECTID" : 179,
				"ID" : 4336,
				"STATIONNUMBER" : "0001/-783",
				"STATIONNAME" : "Pařížská 98/17",
				"CITYDISTRICTRUIANCODE" : 500054,
				"CITYDISTRICT" : "Praha 1",
				"PRISTUP" : "obyvatelům domu"
			}
		},
		{
			"type" : "Feature",
			"geometry" : {
				"type" : "Point",
				"coordinates" : [ 14.41492007200003, 50.078311720000045 ]
			},
			"properties" : {
				"OBJECTID" : 180,
				"ID" : 4337,
				"STATIONNUMBER" : "0001/-784",
				"STATIONNAME" : "Vojtěšská 241/9",
				"CITYDISTRICTRUIANCODE" : 500054,
				"CITYDISTRICT" : "Praha 1",
				"PRISTUP" : "obyvatelům domu"
			}
		},
		{
			"type" : "Feature",
			"geometry" : {
				"type" : "Point",
				"coordinates" : [ 14.424936425000055, 50.075397278000025 ]
			},
			"properties" : {
				"OBJECTID" : 181,
				"ID" : 4340,
				"STATIONNUMBER" : "0002/-307",
				"STATIONNAME" : "Ječná 1542/24",
				"CITYDISTRICTRUIANCODE" : 500089,
				"CITYDISTRICT" : "Praha 2",
				"PRISTUP" : "obyvatelům domu"
			}
		},
		{
			"type" : "Feature",
			"geometry" : {
				"type" : "Point",
				"coordinates" : [ 14.426627421000035, 50.07492300400003 ]
			},
			"properties" : {
				"OBJECTID" : 182,
				"ID" : 4341,
				"STATIONNUMBER" : "0002/-308",
				"STATIONNAME" : "Kateřinská 1521/13",
				"CITYDISTRICTRUIANCODE" : 500089,
				"CITYDISTRICT" : "Praha 2",
				"PRISTUP" : "obyvatelům domu"
			}
		},
		{
			"type" : "Feature",
			"geometry" : {
				"type" : "Point",
				"coordinates" : [ 14.41868764700007, 50.06708278500008 ]
			},
			"properties" : {
				"OBJECTID" : 183,
				"ID" : 4343,
				"STATIONNUMBER" : "0002/-310",
				"STATIONNAME" : "Neklanova 126/10",
				"CITYDISTRICTRUIANCODE" : 500089,
				"CITYDISTRICT" : "Praha 2",
				"PRISTUP" : "obyvatelům domu"
			}
		},
		{
			"type" : "Feature",
			"geometry" : {
				"type" : "Point",
				"coordinates" : [ 14.414314166000054, 50.07812067200007 ]
			},
			"properties" : {
				"OBJECTID" : 184,
				"ID" : 3705,
				"STATIONNUMBER" : "0001/-183",
				"STATIONNAME" : "Masarykovo nábřeží 237/18",
				"CITYDISTRICTRUIANCODE" : 500054,
				"CITYDISTRICT" : "Praha 1",
				"PRISTUP" : "obyvatelům domu"
			}
		},
		{
			"type" : "Feature",
			"geometry" : {
				"type" : "Point",
				"coordinates" : [ 14.423925833000055, 50.089464227000065 ]
			},
			"properties" : {
				"OBJECTID" : 185,
				"ID" : 3706,
				"STATIONNUMBER" : "0001/-184",
				"STATIONNAME" : "Masná 703/7",
				"CITYDISTRICTRUIANCODE" : 500054,
				"CITYDISTRICT" : "Praha 1",
				"PRISTUP" : "obyvatelům domu"
			}
		},
		{
			"type" : "Feature",
			"geometry" : {
				"type" : "Point",
				"coordinates" : [ 14.423874170000033, 50.08902238100006 ]
			},
			"properties" : {
				"OBJECTID" : 186,
				"ID" : 3707,
				"STATIONNUMBER" : "0001/-185",
				"STATIONNAME" : "Masná 621/10",
				"CITYDISTRICTRUIANCODE" : 500054,
				"CITYDISTRICT" : "Praha 1",
				"PRISTUP" : "obyvatelům domu"
			}
		},
		{
			"type" : "Feature",
			"geometry" : {
				"type" : "Point",
				"coordinates" : [ 14.424311142000022, 50.08944088000004 ]
			},
			"properties" : {
				"OBJECTID" : 187,
				"ID" : 3708,
				"STATIONNUMBER" : "0001/-186",
				"STATIONNAME" : "Masná 700/11",
				"CITYDISTRICTRUIANCODE" : 500054,
				"CITYDISTRICT" : "Praha 1",
				"PRISTUP" : "obyvatelům domu"
			}
		},
		{
			"type" : "Feature",
			"geometry" : {
				"type" : "Point",
				"coordinates" : [ 14.425304339000036, 50.08984888500004 ]
			},
			"properties" : {
				"OBJECTID" : 188,
				"ID" : 3709,
				"STATIONNUMBER" : "0001/-187",
				"STATIONNAME" : "Masná 697/19",
				"CITYDISTRICTRUIANCODE" : 500054,
				"CITYDISTRICT" : "Praha 1",
				"PRISTUP" : "obyvatelům domu"
			}
		},
		{
			"type" : "Feature",
			"geometry" : {
				"type" : "Point",
				"coordinates" : [ 14.42003541300005, 50.08463332200006 ]
			},
			"properties" : {
				"OBJECTID" : 189,
				"ID" : 3720,
				"STATIONNUMBER" : "0001/-199",
				"STATIONNAME" : "Michalská 511/6",
				"CITYDISTRICTRUIANCODE" : 500054,
				"CITYDISTRICT" : "Praha 1",
				"PRISTUP" : "obyvatelům domu"
			}
		},
		{
			"type" : "Feature",
			"geometry" : {
				"type" : "Point",
				"coordinates" : [ 14.419741616000067, 50.085812314000066 ]
			},
			"properties" : {
				"OBJECTID" : 190,
				"ID" : 3721,
				"STATIONNUMBER" : "0001/-200",
				"STATIONNAME" : "Michalská 435/21",
				"CITYDISTRICTRUIANCODE" : 500054,
				"CITYDISTRICT" : "Praha 1",
				"PRISTUP" : "obyvatelům domu"
			}
		},
		{
			"type" : "Feature",
			"geometry" : {
				"type" : "Point",
				"coordinates" : [ 14.418336973000066, 50.081195509000054 ]
			},
			"properties" : {
				"OBJECTID" : 191,
				"ID" : 3722,
				"STATIONNUMBER" : "0001/-201",
				"STATIONNAME" : "Mikulandská 122/4",
				"CITYDISTRICTRUIANCODE" : 500054,
				"CITYDISTRICT" : "Praha 1",
				"PRISTUP" : "obyvatelům domu"
			}
		},
		{
			"type" : "Feature",
			"geometry" : {
				"type" : "Point",
				"coordinates" : [ 14.407029571000066, 50.087138528000025 ]
			},
			"properties" : {
				"OBJECTID" : 192,
				"ID" : 3723,
				"STATIONNUMBER" : "0001/-202",
				"STATIONNAME" : "Mostecká 56/1",
				"CITYDISTRICTRUIANCODE" : 500054,
				"CITYDISTRICT" : "Praha 1",
				"PRISTUP" : "obyvatelům domu"
			}
		},
		{
			"type" : "Feature",
			"geometry" : {
				"type" : "Point",
				"coordinates" : [ 14.406488742000022, 50.08722671700008 ]
			},
			"properties" : {
				"OBJECTID" : 193,
				"ID" : 3724,
				"STATIONNUMBER" : "0001/-203",
				"STATIONNAME" : "Mostecká 55/3",
				"CITYDISTRICTRUIANCODE" : 500054,
				"CITYDISTRICT" : "Praha 1",
				"PRISTUP" : "obyvatelům domu"
			}
		},
		{
			"type" : "Feature",
			"geometry" : {
				"type" : "Point",
				"coordinates" : [ 14.406559161000075, 50.08740177700008 ]
			},
			"properties" : {
				"OBJECTID" : 194,
				"ID" : 3725,
				"STATIONNUMBER" : "0001/-204",
				"STATIONNAME" : "Mostecká 53/4",
				"CITYDISTRICTRUIANCODE" : 500054,
				"CITYDISTRICT" : "Praha 1",
				"PRISTUP" : "obyvatelům domu"
			}
		},
		{
			"type" : "Feature",
			"geometry" : {
				"type" : "Point",
				"coordinates" : [ 14.40510099000005, 50.087666381000076 ]
			},
			"properties" : {
				"OBJECTID" : 195,
				"ID" : 3727,
				"STATIONNUMBER" : "0001/-206",
				"STATIONNAME" : "Mostecká 40/26",
				"CITYDISTRICTRUIANCODE" : 500054,
				"CITYDISTRICT" : "Praha 1",
				"PRISTUP" : "obyvatelům domu"
			}
		},
		{
			"type" : "Feature",
			"geometry" : {
				"type" : "Point",
				"coordinates" : [ 14.415510233000077, 50.08442310400005 ]
			},
			"properties" : {
				"OBJECTID" : 196,
				"ID" : 3756,
				"STATIONNUMBER" : "0001/-235",
				"STATIONNAME" : "Náprstkova 213/5",
				"CITYDISTRICTRUIANCODE" : 500054,
				"CITYDISTRICT" : "Praha 1",
				"PRISTUP" : "obyvatelům domu"
			}
		},
		{
			"type" : "Feature",
			"geometry" : {
				"type" : "Point",
				"coordinates" : [ 14.40578369800005, 50.084459508000066 ]
			},
			"properties" : {
				"OBJECTID" : 197,
				"ID" : 3770,
				"STATIONNUMBER" : "0001/-249",
				"STATIONNAME" : "Nebovidská 462/2",
				"CITYDISTRICTRUIANCODE" : 500054,
				"CITYDISTRICT" : "Praha 1",
				"PRISTUP" : "obyvatelům domu"
			}
		},
		{
			"type" : "Feature",
			"geometry" : {
				"type" : "Point",
				"coordinates" : [ 14.405797600000028, 50.08461521700008 ]
			},
			"properties" : {
				"OBJECTID" : 198,
				"ID" : 3771,
				"STATIONNUMBER" : "0001/-250",
				"STATIONNAME" : "Nebovidská 461/4",
				"CITYDISTRICTRUIANCODE" : 500054,
				"CITYDISTRICT" : "Praha 1",
				"PRISTUP" : "obyvatelům domu"
			}
		},
		{
			"type" : "Feature",
			"geometry" : {
				"type" : "Point",
				"coordinates" : [ 14.428783415000055, 50.08455453000005 ]
			},
			"properties" : {
				"OBJECTID" : 199,
				"ID" : 3773,
				"STATIONNUMBER" : "0001/-252",
				"STATIONNAME" : "Nekázanka 876/19",
				"CITYDISTRICTRUIANCODE" : 500054,
				"CITYDISTRICT" : "Praha 1",
				"PRISTUP" : "obyvatelům domu"
			}
		},
		{
			"type" : "Feature",
			"geometry" : {
				"type" : "Point",
				"coordinates" : [ 14.42867786000005, 50.084454433000076 ]
			},
			"properties" : {
				"OBJECTID" : 200,
				"ID" : 3774,
				"STATIONNUMBER" : "0001/-253",
				"STATIONNAME" : "Nekázanka 888/20",
				"CITYDISTRICTRUIANCODE" : 500054,
				"CITYDISTRICT" : "Praha 1",
				"PRISTUP" : "obyvatelům domu"
			}
		},
		{
			"type" : "Feature",
			"geometry" : {
				"type" : "Point",
				"coordinates" : [ 14.401958275000027, 50.088685541000075 ]
			},
			"properties" : {
				"OBJECTID" : 201,
				"ID" : 3775,
				"STATIONNUMBER" : "0001/-254",
				"STATIONNAME" : "Nerudova 205/2",
				"CITYDISTRICTRUIANCODE" : 500054,
				"CITYDISTRICT" : "Praha 1",
				"PRISTUP" : "obyvatelům domu"
			}
		},
		{
			"type" : "Feature",
			"geometry" : {
				"type" : "Point",
				"coordinates" : [ 14.433382325000025, 50.08515564600003 ]
			},
			"properties" : {
				"OBJECTID" : 202,
				"ID" : 3800,
				"STATIONNUMBER" : "0001/-279",
				"STATIONNAME" : "Opletalova 1608/43",
				"CITYDISTRICTRUIANCODE" : 500054,
				"CITYDISTRICT" : "Praha 1",
				"PRISTUP" : "obyvatelům domu"
			}
		},
		{
			"type" : "Feature",
			"geometry" : {
				"type" : "Point",
				"coordinates" : [ 14.423623707000047, 50.08073901000006 ]
			},
			"properties" : {
				"OBJECTID" : 203,
				"ID" : 3808,
				"STATIONNUMBER" : "0001/-287",
				"STATIONNAME" : "Palackého 726/12",
				"CITYDISTRICTRUIANCODE" : 500054,
				"CITYDISTRICT" : "Praha 1",
				"PRISTUP" : "obyvatelům domu"
			}
		},
		{
			"type" : "Feature",
			"geometry" : {
				"type" : "Point",
				"coordinates" : [ 14.419439380000028, 50.089251508000075 ]
			},
			"properties" : {
				"OBJECTID" : 204,
				"ID" : 3809,
				"STATIONNUMBER" : "0001/-288",
				"STATIONNAME" : "Pařížská 66/13",
				"CITYDISTRICTRUIANCODE" : 500054,
				"CITYDISTRICT" : "Praha 1",
				"PRISTUP" : "obyvatelům domu"
			}
		},
		{
			"type" : "Feature",
			"geometry" : {
				"type" : "Point",
				"coordinates" : [ 14.419552120000048, 50.08926339800007 ]
			},
			"properties" : {
				"OBJECTID" : 205,
				"ID" : 3810,
				"STATIONNUMBER" : "0001/-289",
				"STATIONNAME" : "Pařížská 119/14",
				"CITYDISTRICTRUIANCODE" : 500054,
				"CITYDISTRICT" : "Praha 1",
				"PRISTUP" : "obyvatelům domu"
			}
		},
		{
			"type" : "Feature",
			"geometry" : {
				"type" : "Point",
				"coordinates" : [ 14.419209907000038, 50.08978710800005 ]
			},
			"properties" : {
				"OBJECTID" : 206,
				"ID" : 3811,
				"STATIONNUMBER" : "0001/-290",
				"STATIONNAME" : "Pařížská 126/18",
				"CITYDISTRICTRUIANCODE" : 500054,
				"CITYDISTRICT" : "Praha 1",
				"PRISTUP" : "obyvatelům domu"
			}
		},
		{
			"type" : "Feature",
			"geometry" : {
				"type" : "Point",
				"coordinates" : [ 14.421029763000035, 50.08352371700005 ]
			},
			"properties" : {
				"OBJECTID" : 207,
				"ID" : 3812,
				"STATIONNUMBER" : "0001/-291",
				"STATIONNAME" : "Perlová 366/6",
				"CITYDISTRICTRUIANCODE" : 500054,
				"CITYDISTRICT" : "Praha 1",
				"PRISTUP" : "obyvatelům domu"
			}
		},
		{
			"type" : "Feature",
			"geometry" : {
				"type" : "Point",
				"coordinates" : [ 14.421171437000055, 50.08341791200007 ]
			},
			"properties" : {
				"OBJECTID" : 208,
				"ID" : 3813,
				"STATIONNUMBER" : "0001/-292",
				"STATIONNAME" : "Perlová 1020/8",
				"CITYDISTRICTRUIANCODE" : 500054,
				"CITYDISTRICT" : "Praha 1",
				"PRISTUP" : "obyvatelům domu"
			}
		},
		{
			"type" : "Feature",
			"geometry" : {
				"type" : "Point",
				"coordinates" : [ 14.432487137000066, 50.091316832000075 ]
			},
			"properties" : {
				"OBJECTID" : 209,
				"ID" : 3814,
				"STATIONNUMBER" : "0001/-293",
				"STATIONNAME" : "Petrská 1426/1",
				"CITYDISTRICTRUIANCODE" : 500054,
				"CITYDISTRICT" : "Praha 1",
				"PRISTUP" : "obyvatelům domu"
			}
		},
		{
			"type" : "Feature",
			"geometry" : {
				"type" : "Point",
				"coordinates" : [ 14.432517064000024, 50.091110738000054 ]
			},
			"properties" : {
				"OBJECTID" : 210,
				"ID" : 3815,
				"STATIONNUMBER" : "0001/-294",
				"STATIONNAME" : "Petrská 1131/2",
				"CITYDISTRICTRUIANCODE" : 500054,
				"CITYDISTRICT" : "Praha 1",
				"PRISTUP" : "obyvatelům domu"
			}
		},
		{
			"type" : "Feature",
			"geometry" : {
				"type" : "Point",
				"coordinates" : [ 14.466622838000035, 50.020024558000046 ]
			},
			"properties" : {
				"OBJECTID" : 211,
				"ID" : 2980,
				"STATIONNUMBER" : "1004/-004",
				"STATIONNAME" : "Za Valem 1402/13",
				"CITYDISTRICTRUIANCODE" : 547042,
				"CITYDISTRICT" : "Kunratice",
				"PRISTUP" : "obyvatelům domu"
			}
		},
		{
			"type" : "Feature",
			"geometry" : {
				"type" : "Point",
				"coordinates" : [ 14.467023870000048, 50.01962561100004 ]
			},
			"properties" : {
				"OBJECTID" : 212,
				"ID" : 2981,
				"STATIONNUMBER" : "1004/-005",
				"STATIONNAME" : "Muškova 1429/2",
				"CITYDISTRICTRUIANCODE" : 547042,
				"CITYDISTRICT" : "Kunratice",
				"PRISTUP" : "obyvatelům domu"
			}
		},
		{
			"type" : "Feature",
			"geometry" : {
				"type" : "Point",
				"coordinates" : [ 14.46723595700007, 50.01975056500004 ]
			},
			"properties" : {
				"OBJECTID" : 213,
				"ID" : 2982,
				"STATIONNUMBER" : "1004/-006",
				"STATIONNAME" : "Muškova 1430/4",
				"CITYDISTRICTRUIANCODE" : 547042,
				"CITYDISTRICT" : "Kunratice",
				"PRISTUP" : "obyvatelům domu"
			}
		},
		{
			"type" : "Feature",
			"geometry" : {
				"type" : "Point",
				"coordinates" : [ 14.467431108000028, 50.01986554000007 ]
			},
			"properties" : {
				"OBJECTID" : 214,
				"ID" : 2983,
				"STATIONNUMBER" : "1004/-007",
				"STATIONNAME" : "Muškova 1425/6",
				"CITYDISTRICTRUIANCODE" : 547042,
				"CITYDISTRICT" : "Kunratice",
				"PRISTUP" : "obyvatelům domu"
			}
		},
		{
			"type" : "Feature",
			"geometry" : {
				"type" : "Point",
				"coordinates" : [ 14.467210181000041, 50.01983284600004 ]
			},
			"properties" : {
				"OBJECTID" : 215,
				"ID" : 2984,
				"STATIONNUMBER" : "1004/-008",
				"STATIONNAME" : "Muškova 1404/1",
				"CITYDISTRICTRUIANCODE" : 547042,
				"CITYDISTRICT" : "Kunratice",
				"PRISTUP" : "obyvatelům domu"
			}
		},
		{
			"type" : "Feature",
			"geometry" : {
				"type" : "Point",
				"coordinates" : [ 14.467378395000026, 50.019931951000046 ]
			},
			"properties" : {
				"OBJECTID" : 216,
				"ID" : 2985,
				"STATIONNUMBER" : "1004/-009",
				"STATIONNAME" : "Muškova 1405/3",
				"CITYDISTRICTRUIANCODE" : 547042,
				"CITYDISTRICT" : "Kunratice",
				"PRISTUP" : "obyvatelům domu"
			}
		},
		{
			"type" : "Feature",
			"geometry" : {
				"type" : "Point",
				"coordinates" : [ 14.46783173600005, 50.019918079000036 ]
			},
			"properties" : {
				"OBJECTID" : 217,
				"ID" : 2986,
				"STATIONNUMBER" : "1004/-010",
				"STATIONNAME" : "Velké Kunratické 1426/28",
				"CITYDISTRICTRUIANCODE" : 547042,
				"CITYDISTRICT" : "Kunratice",
				"PRISTUP" : "obyvatelům domu"
			}
		},
		{
			"type" : "Feature",
			"geometry" : {
				"type" : "Point",
				"coordinates" : [ 14.467456979000076, 50.020101357000044 ]
			},
			"properties" : {
				"OBJECTID" : 218,
				"ID" : 2987,
				"STATIONNUMBER" : "1004/-011",
				"STATIONNAME" : "Velké Kunratické 1406/26",
				"CITYDISTRICTRUIANCODE" : 547042,
				"CITYDISTRICT" : "Kunratice",
				"PRISTUP" : "obyvatelům domu"
			}
		},
		{
			"type" : "Feature",
			"geometry" : {
				"type" : "Point",
				"coordinates" : [ 14.467065010000056, 50.02039074800007 ]
			},
			"properties" : {
				"OBJECTID" : 219,
				"ID" : 2988,
				"STATIONNUMBER" : "1004/-012",
				"STATIONNAME" : "Velké Kunratické 1399/24",
				"CITYDISTRICTRUIANCODE" : 547042,
				"CITYDISTRICT" : "Kunratice",
				"PRISTUP" : "obyvatelům domu"
			}
		},
		{
			"type" : "Feature",
			"geometry" : {
				"type" : "Point",
				"coordinates" : [ 14.427780805000054, 50.077057205000074 ]
			},
			"properties" : {
				"OBJECTID" : 220,
				"ID" : 3236,
				"STATIONNUMBER" : "0002/-003",
				"STATIONNAME" : "Žitná 2072/36",
				"CITYDISTRICTRUIANCODE" : 500089,
				"CITYDISTRICT" : "Praha 2",
				"PRISTUP" : "obyvatelům domu"
			}
		},
		{
			"type" : "Feature",
			"geometry" : {
				"type" : "Point",
				"coordinates" : [ 14.427951705000055, 50.077051105000066 ]
			},
			"properties" : {
				"OBJECTID" : 221,
				"ID" : 3237,
				"STATIONNUMBER" : "0002/-004",
				"STATIONNAME" : "Žitná 573/38",
				"CITYDISTRICTRUIANCODE" : 500089,
				"CITYDISTRICT" : "Praha 2",
				"PRISTUP" : "obyvatelům domu"
			}
		},
		{
			"type" : "Feature",
			"geometry" : {
				"type" : "Point",
				"coordinates" : [ 14.424007806000077, 50.07581830500004 ]
			},
			"properties" : {
				"OBJECTID" : 222,
				"ID" : 3238,
				"STATIONNUMBER" : "0002/-005",
				"STATIONNAME" : "Štěpánská 544/1",
				"CITYDISTRICTRUIANCODE" : 500089,
				"CITYDISTRICT" : "Praha 2",
				"PRISTUP" : "obyvatelům domu"
			}
		},
		{
			"type" : "Feature",
			"geometry" : {
				"type" : "Point",
				"coordinates" : [ 14.424112663000074, 50.06351455300006 ]
			},
			"properties" : {
				"OBJECTID" : 223,
				"ID" : 3239,
				"STATIONNUMBER" : "0002/-006",
				"STATIONNAME" : "Lumírova 105/21",
				"CITYDISTRICTRUIANCODE" : 500089,
				"CITYDISTRICT" : "Praha 2",
				"PRISTUP" : "obyvatelům domu"
			}
		},
		{
			"type" : "Feature",
			"geometry" : {
				"type" : "Point",
				"coordinates" : [ 14.424178839000035, 50.075299622000045 ]
			},
			"properties" : {
				"OBJECTID" : 224,
				"ID" : 3240,
				"STATIONNUMBER" : "0002/-007",
				"STATIONNAME" : "Lípová 512/22",
				"CITYDISTRICTRUIANCODE" : 500089,
				"CITYDISTRICT" : "Praha 2",
				"PRISTUP" : "obyvatelům domu"
			}
		},
		{
			"type" : "Feature",
			"geometry" : {
				"type" : "Point",
				"coordinates" : [ 14.428320800000051, 50.07641736700003 ]
			},
			"properties" : {
				"OBJECTID" : 225,
				"ID" : 3241,
				"STATIONNUMBER" : "0002/-008",
				"STATIONNAME" : "Hálkova 1641/9",
				"CITYDISTRICTRUIANCODE" : 500089,
				"CITYDISTRICT" : "Praha 2",
				"PRISTUP" : "obyvatelům domu"
			}
		},
		{
			"type" : "Feature",
			"geometry" : {
				"type" : "Point",
				"coordinates" : [ 14.42857310100004, 50.076437154000075 ]
			},
			"properties" : {
				"OBJECTID" : 226,
				"ID" : 3242,
				"STATIONNUMBER" : "0002/-009",
				"STATIONNAME" : "Hálkova 1629/11",
				"CITYDISTRICTRUIANCODE" : 500089,
				"CITYDISTRICT" : "Praha 2",
				"PRISTUP" : "obyvatelům domu"
			}
		},
		{
			"type" : "Feature",
			"geometry" : {
				"type" : "Point",
				"coordinates" : [ 14.424536819000025, 50.075321786000075 ]
			},
			"properties" : {
				"OBJECTID" : 227,
				"ID" : 3254,
				"STATIONNUMBER" : "0002/-023",
				"STATIONNAME" : "Ječná 513/20",
				"CITYDISTRICTRUIANCODE" : 500089,
				"CITYDISTRICT" : "Praha 2",
				"PRISTUP" : "obyvatelům domu"
			}
		},
		{
			"type" : "Feature",
			"geometry" : {
				"type" : "Point",
				"coordinates" : [ 14.425387690000036, 50.075432326000055 ]
			},
			"properties" : {
				"OBJECTID" : 228,
				"ID" : 3255,
				"STATIONNUMBER" : "0002/-025",
				"STATIONNAME" : "Ječná 516/28",
				"CITYDISTRICTRUIANCODE" : 500089,
				"CITYDISTRICT" : "Praha 2",
				"PRISTUP" : "obyvatelům domu"
			}
		},
		{
			"type" : "Feature",
			"geometry" : {
				"type" : "Point",
				"coordinates" : [ 14.426106812000057, 50.07575945500008 ]
			},
			"properties" : {
				"OBJECTID" : 229,
				"ID" : 3256,
				"STATIONNUMBER" : "0002/-027",
				"STATIONNAME" : "Ječná 528/31",
				"CITYDISTRICTRUIANCODE" : 500089,
				"CITYDISTRICT" : "Praha 2",
				"PRISTUP" : "obyvatelům domu"
			}
		},
		{
			"type" : "Feature",
			"geometry" : {
				"type" : "Point",
				"coordinates" : [ 14.421230172000037, 50.06727816000006 ]
			},
			"properties" : {
				"OBJECTID" : 230,
				"ID" : 3265,
				"STATIONNUMBER" : "0002/-036",
				"STATIONNAME" : "Na Slupi 142/5",
				"CITYDISTRICTRUIANCODE" : 500089,
				"CITYDISTRICT" : "Praha 2",
				"PRISTUP" : "obyvatelům domu"
			}
		},
		{
			"type" : "Feature",
			"geometry" : {
				"type" : "Point",
				"coordinates" : [ 14.41988869000005, 50.070201404000045 ]
			},
			"properties" : {
				"OBJECTID" : 231,
				"ID" : 3266,
				"STATIONNUMBER" : "0002/-037",
				"STATIONNAME" : "Na Slupi 1484/12",
				"CITYDISTRICTRUIANCODE" : 500089,
				"CITYDISTRICT" : "Praha 2",
				"PRISTUP" : "obyvatelům domu"
			}
		},
		{
			"type" : "Feature",
			"geometry" : {
				"type" : "Point",
				"coordinates" : [ 14.416325955000048, 50.076143923000075 ]
			},
			"properties" : {
				"OBJECTID" : 232,
				"ID" : 3271,
				"STATIONNUMBER" : "0002/-043",
				"STATIONNAME" : "Na Zderaze 1947/3",
				"CITYDISTRICTRUIANCODE" : 500089,
				"CITYDISTRICT" : "Praha 2",
				"PRISTUP" : "obyvatelům domu"
			}
		},
		{
			"type" : "Feature",
			"geometry" : {
				"type" : "Point",
				"coordinates" : [ 14.414865702000043, 50.076530957000045 ]
			},
			"properties" : {
				"OBJECTID" : 233,
				"ID" : 3273,
				"STATIONNUMBER" : "0002/-045",
				"STATIONNAME" : "Náplavní 2012/3",
				"CITYDISTRICTRUIANCODE" : 500089,
				"CITYDISTRICT" : "Praha 2",
				"PRISTUP" : "obyvatelům domu"
			}
		},
		{
			"type" : "Feature",
			"geometry" : {
				"type" : "Point",
				"coordinates" : [ 14.414329405000046, 50.07649500500003 ]
			},
			"properties" : {
				"OBJECTID" : 234,
				"ID" : 3274,
				"STATIONNUMBER" : "0002/-047",
				"STATIONNAME" : "Masarykovo nábřeží 2014/2",
				"CITYDISTRICTRUIANCODE" : 500089,
				"CITYDISTRICT" : "Praha 2",
				"PRISTUP" : "obyvatelům domu"
			}
		},
		{
			"type" : "Feature",
			"geometry" : {
				"type" : "Point",
				"coordinates" : [ 14.414128106000021, 50.07348190500005 ]
			},
			"properties" : {
				"OBJECTID" : 235,
				"ID" : 3275,
				"STATIONNUMBER" : "0002/-048",
				"STATIONNAME" : "Rašínovo nábřeží 1571/62",
				"CITYDISTRICTRUIANCODE" : 500089,
				"CITYDISTRICT" : "Praha 2",
				"PRISTUP" : "obyvatelům domu"
			}
		},
		{
			"type" : "Feature",
			"geometry" : {
				"type" : "Point",
				"coordinates" : [ 14.415880205000065, 50.068841174000056 ]
			},
			"properties" : {
				"OBJECTID" : 236,
				"ID" : 3283,
				"STATIONNUMBER" : "0002/-056",
				"STATIONNAME" : "Podskalská 408/6",
				"CITYDISTRICTRUIANCODE" : 500089,
				"CITYDISTRICT" : "Praha 2",
				"PRISTUP" : "obyvatelům domu"
			}
		},
		{
			"type" : "Feature",
			"geometry" : {
				"type" : "Point",
				"coordinates" : [ 14.416321679000077, 50.07080840200007 ]
			},
			"properties" : {
				"OBJECTID" : 237,
				"ID" : 3284,
				"STATIONNUMBER" : "0002/-057",
				"STATIONNAME" : "Trojická 1912/11",
				"CITYDISTRICTRUIANCODE" : 500089,
				"CITYDISTRICT" : "Praha 2",
				"PRISTUP" : "obyvatelům domu"
			}
		},
		{
			"type" : "Feature",
			"geometry" : {
				"type" : "Point",
				"coordinates" : [ 14.416498176000061, 50.07064252200007 ]
			},
			"properties" : {
				"OBJECTID" : 238,
				"ID" : 3285,
				"STATIONNUMBER" : "0002/-058",
				"STATIONNAME" : "Trojická 1904/14",
				"CITYDISTRICTRUIANCODE" : 500089,
				"CITYDISTRICT" : "Praha 2",
				"PRISTUP" : "obyvatelům domu"
			}
		},
		{
			"type" : "Feature",
			"geometry" : {
				"type" : "Point",
				"coordinates" : [ 14.415698625000061, 50.06996357700007 ]
			},
			"properties" : {
				"OBJECTID" : 239,
				"ID" : 3286,
				"STATIONNUMBER" : "0002/-059",
				"STATIONNAME" : "Ladova 2045/1",
				"CITYDISTRICTRUIANCODE" : 500089,
				"CITYDISTRICT" : "Praha 2",
				"PRISTUP" : "obyvatelům domu"
			}
		},
		{
			"type" : "Feature",
			"geometry" : {
				"type" : "Point",
				"coordinates" : [ 14.416205620000028, 50.07007339900008 ]
			},
			"properties" : {
				"OBJECTID" : 240,
				"ID" : 3287,
				"STATIONNUMBER" : "0002/-060",
				"STATIONNAME" : "Ladova 2043/5",
				"CITYDISTRICTRUIANCODE" : 500089,
				"CITYDISTRICT" : "Praha 2",
				"PRISTUP" : "obyvatelům domu"
			}
		},
		{
			"type" : "Feature",
			"geometry" : {
				"type" : "Point",
				"coordinates" : [ 14.416489346000048, 50.07002457200008 ]
			},
			"properties" : {
				"OBJECTID" : 241,
				"ID" : 3288,
				"STATIONNUMBER" : "0002/-061",
				"STATIONNAME" : "Ladova 2042/7",
				"CITYDISTRICTRUIANCODE" : 500089,
				"CITYDISTRICT" : "Praha 2",
				"PRISTUP" : "obyvatelům domu"
			}
		},
		{
			"type" : "Feature",
			"geometry" : {
				"type" : "Point",
				"coordinates" : [ 14.417048106000038, 50.06846750500006 ]
			},
			"properties" : {
				"OBJECTID" : 242,
				"ID" : 3293,
				"STATIONNUMBER" : "0002/-066",
				"STATIONNAME" : "Vyšehradská 415/9",
				"CITYDISTRICTRUIANCODE" : 500089,
				"CITYDISTRICT" : "Praha 2",
				"PRISTUP" : "obyvatelům domu"
			}
		},
		{
			"type" : "Feature",
			"geometry" : {
				"type" : "Point",
				"coordinates" : [ 14.417482506000056, 50.06865530500005 ]
			},
			"properties" : {
				"OBJECTID" : 243,
				"ID" : 3294,
				"STATIONNUMBER" : "0002/-067",
				"STATIONNAME" : "Vyšehradská 1407/10",
				"CITYDISTRICTRUIANCODE" : 500089,
				"CITYDISTRICT" : "Praha 2",
				"PRISTUP" : "obyvatelům domu"
			}
		},
		{
			"type" : "Feature",
			"geometry" : {
				"type" : "Point",
				"coordinates" : [ 14.417232506000062, 50.06900110500004 ]
			},
			"properties" : {
				"OBJECTID" : 244,
				"ID" : 3296,
				"STATIONNUMBER" : "0002/-069",
				"STATIONNAME" : "Vyšehradská 418/15",
				"CITYDISTRICTRUIANCODE" : 500089,
				"CITYDISTRICT" : "Praha 2",
				"PRISTUP" : "obyvatelům domu"
			}
		},
		{
			"type" : "Feature",
			"geometry" : {
				"type" : "Point",
				"coordinates" : [ 14.41793530600006, 50.06966670500003 ]
			},
			"properties" : {
				"OBJECTID" : 245,
				"ID" : 3297,
				"STATIONNUMBER" : "0002/-070",
				"STATIONNAME" : "Vyšehradská 423/27",
				"CITYDISTRICTRUIANCODE" : 500089,
				"CITYDISTRICT" : "Praha 2",
				"PRISTUP" : "obyvatelům domu"
			}
		},
		{
			"type" : "Feature",
			"geometry" : {
				"type" : "Point",
				"coordinates" : [ 14.418500306000055, 50.07025190500008 ]
			},
			"properties" : {
				"OBJECTID" : 246,
				"ID" : 3299,
				"STATIONNUMBER" : "0002/-072",
				"STATIONNAME" : "Vyšehradská 428/35",
				"CITYDISTRICTRUIANCODE" : 500089,
				"CITYDISTRICT" : "Praha 2",
				"PRISTUP" : "obyvatelům domu"
			}
		},
		{
			"type" : "Feature",
			"geometry" : {
				"type" : "Point",
				"coordinates" : [ 14.416280449000055, 50.06874068400003 ]
			},
			"properties" : {
				"OBJECTID" : 247,
				"ID" : 3300,
				"STATIONNUMBER" : "0002/-074",
				"STATIONNAME" : "Na výtoni 2057/5",
				"CITYDISTRICTRUIANCODE" : 500089,
				"CITYDISTRICT" : "Praha 2",
				"PRISTUP" : "obyvatelům domu"
			}
		},
		{
			"type" : "Feature",
			"geometry" : {
				"type" : "Point",
				"coordinates" : [ 14.417269260000069, 50.07406805200003 ]
			},
			"properties" : {
				"OBJECTID" : 248,
				"ID" : 3302,
				"STATIONNUMBER" : "0002/-076",
				"STATIONNAME" : "Václavská 327/7",
				"CITYDISTRICTRUIANCODE" : 500089,
				"CITYDISTRICT" : "Praha 2",
				"PRISTUP" : "obyvatelům domu"
			}
		},
		{
			"type" : "Feature",
			"geometry" : {
				"type" : "Point",
				"coordinates" : [ 14.418574910000075, 50.06592595600006 ]
			},
			"properties" : {
				"OBJECTID" : 249,
				"ID" : 3303,
				"STATIONNUMBER" : "0002/-077",
				"STATIONNAME" : "Vratislavova 22/20",
				"CITYDISTRICTRUIANCODE" : 500089,
				"CITYDISTRICT" : "Praha 2",
				"PRISTUP" : "obyvatelům domu"
			}
		},
		{
			"type" : "Feature",
			"geometry" : {
				"type" : "Point",
				"coordinates" : [ 14.41650609900006, 50.06696454000007 ]
			},
			"properties" : {
				"OBJECTID" : 250,
				"ID" : 3304,
				"STATIONNUMBER" : "0002/-078",
				"STATIONNAME" : "Vratislavova 33/2",
				"CITYDISTRICTRUIANCODE" : 500089,
				"CITYDISTRICT" : "Praha 2",
				"PRISTUP" : "obyvatelům domu"
			}
		},
		{
			"type" : "Feature",
			"geometry" : {
				"type" : "Point",
				"coordinates" : [ 14.415426965000051, 50.07736367800004 ]
			},